"geonameid","name","asciiname","alternatenames","latitude","longitude","feature_class","feature_code","country_code","cc2","admin1_code","admin2_code","admin3_code","admin4_code","population","elevation","dem","timezone","modification_date"
3186234,"Rašica","Rasica","Rascica,Rasica,Rašica,Raščica",45.855,14.6264,"P","PPL","SI","","D8","","","",267,NULL,514,"Europe/Ljubljana","2014-04-25"
3186239,"Mrše","Mrse","Merse,Mrse,Mrše",45.5831,14.0461,"P","PPL","SI","",35,"","","",29,NULL,710,"Europe/Ljubljana","2014-04-25"
3186254,"Žvirče","Zvirce","Zvirce,Žvirče",45.7839,14.8256,"P","PPL","SI","","N8","","","",125,NULL,441,"Europe/Ljubljana","2014-04-25"
3186269,"Žvab","Zvab","Zvab,Žvab",46.4671,16.1198,"P","PPL","SI","",87,"","","",89,NULL,278,"Europe/Ljubljana","2014-04-26"
3186270,"Žužemberk","Zuzemberk","Obcina Zuzemberk,Občina Žužemberk,Seisenberg,Zuzemberk,Zuzemperk,jujenberuku,Žužemberk,Žužemperk,ジュジェンベルク",45.8339,14.9292,"P","PPLA","SI","","N8","","","",1053,NULL,233,"Europe/Ljubljana","2014-04-27"
3186285,"Župelevec","Zupelevec","Zupelevec,Župelevec",45.9592,15.6872,"P","PPL","SI","","08","","","",211,NULL,188,"Europe/Ljubljana","2014-04-25"
3186323,"Žubina","Zubina","Zubina,Žubina",45.9483,14.9175,"P","PPL","SI","","D4","","","",96,NULL,337,"Europe/Ljubljana","2014-04-25"
3186341,"Zrkovci","Zrkovci","Zrkorci,Zrkovci",46.5478,15.7075,"P","PPL","SI","","J2","","","",629,NULL,245,"Europe/Ljubljana","2014-04-25"
3186346,"Zrin Lukački","Zrin Lukacki","Lukacki Zrin,Lukački Zrin,Zrin Lukacki,Zrin Lukački,Zrinj",45.95,17.4667,"P","PPL","SI","SI","00","","","",0,NULL,104,"Europe/Ljubljana","2012-01-19"
3186363,"Znojile pri Krki","Znojile pri Krki","Znojila,Znojile,Znojile pri Krki",45.8911,14.7842,"P","PPL","SI","",39,"","","",116,NULL,323,"Europe/Ljubljana","2014-04-24"
3186364,"Znojile","Znojile","Znojile",46.1961,13.9231,"P","PPL","SI","","D2","","","",11,NULL,690,"Europe/Ljubljana","2014-04-24"
3186370,"Zminec","Zminec","Zminec",46.15,14.2833,"P","PPL","SI","","B9","","","",464,NULL,401,"Europe/Ljubljana","2014-04-24"
3186385,"Zloganje","Zloganje","",45.9167,15.3,"P","PPL","SI","","00","","","",0,NULL,240,"Europe/Ljubljana","2016-04-11"
3186392,"Žlebič","Zlebic","Zlebic,Žlebič",45.7653,14.6931,"P","PPL","SI","","L1","","","",228,NULL,514,"Europe/Ljubljana","2014-04-25"
3186394,"Zlato Polje","Zlato Polje","Zlato Polje",46.1977,14.7268,"P","PPL","SI","",68,"","","",40,NULL,619,"Europe/Ljubljana","2014-04-26"
3186395,"Zlatoličje","Zlatolicje","Zatolice,Zatoliče,Zlatolicje,Zlatoličje",46.4556,15.7911,"P","PPL","SI","","C8","","","",768,NULL,239,"Europe/Ljubljana","2014-04-24"
3186413,"Zlakova","Zlakova","Zlakova",46.3867,15.4042,"P","PPL","SI","","F3","","","",147,NULL,542,"Europe/Ljubljana","2014-04-24"
3186415,"Žlabor","Zlabor","Zlabor,Žlabor",46.3167,14.95,"P","PPL","SI","",83,"","","",126,NULL,343,"Europe/Ljubljana","2014-04-25"
3186417,"Žižki","Zizki","Zizki,Zsizsekszer,Žižki",46.5725,16.3089,"P","PPL","SI","",15,"","","",0,NULL,169,"Europe/Ljubljana","2012-01-19"
3186441,"Žirovski Vrh","Zirovski Vrh","Zirovski Vrh,Žirovski Vrh",46.05,14.15,"P","PPL","SI","","F2","","","",238,NULL,695,"Europe/Ljubljana","2014-04-25"
3186442,"Žirovnica","Zirovnica","Obcina Zirovnica,Občina Žirovnica,Zirovnica,jirovunitsu~a,Žirovnica,ジロヴニツァ",46.4047,14.14,"P","PPLA","SI","","N7","","","",601,NULL,605,"Europe/Ljubljana","2014-04-27"
3186443,"Žirovnica","Zirovnica","Zirovnica,Žirovnica",46.0167,14.0833,"P","PPL","SI","",36,"","","",20,NULL,642,"Europe/Ljubljana","2014-04-25"
3186450,"Žiri","Ziri","Sairach,Ziri,Žiri",46.0422,14.1072,"P","PPLA","SI","","F2","","","",3588,NULL,479,"Europe/Ljubljana","2014-04-27"
3186456,"Zimica","Zimica","Zimica",46.5333,15.75,"P","PPL","SI","",26,"","","",604,NULL,316,"Europe/Ljubljana","2014-04-24"
3186457,"Žimarice","Zimarice","Zigmarice,Zimarice,Žigmarice,Žimarice",45.7786,14.6014,"P","PPL","SI","","M1","","","",277,NULL,563,"Europe/Ljubljana","2014-04-25"
3186459,"Zilje","Zilje","Zilje",45.4718,15.3006,"P","PPL","SI","",17,"","","",148,NULL,276,"Europe/Ljubljana","2014-04-26"
3186460,"Sveti Vid","Sveti Vid","Sent Vid,Svedi Vid nad Cerknico,Sveti Vid,Zilce,Šent Vid,Žilce",45.8483,14.4603,"P","PPL","SI","",13,"","","",46,NULL,833,"Europe/Ljubljana","2014-04-24"
3186461,"Žikarce","Zikarce","Zikarce,Žikarce",46.5194,15.7811,"P","PPLL","SI","",26,"","","",342,NULL,380,"Europe/Ljubljana","2014-04-25"
3186466,"Žiganja Vas","Ziganja Vas","Zganja Vas,Ziganja Vas,Žganja Vas,Žiganja Vas",46.3167,14.3,"P","PPL","SI","","D5","","","",481,NULL,539,"Europe/Ljubljana","2014-04-25"
3186469,"Zidani Most","Zidani Most","Steinbruck,Steinbrück,Zidani Most,Zidanij Most,ji da ni mo si te,Зидани Мост,Зиданий Мост,濟達尼莫斯特",46.0882,15.1728,"P","PPL","SI","",57,"","","",284,NULL,385,"Europe/Ljubljana","2014-04-26"
3186471,"Žice","Zice","Zice,Žice",46.6167,15.85,"P","PPL","SI","","M3","","","",261,NULL,288,"Europe/Ljubljana","2014-04-25"
3186472,"Žiče","Zice","Zice,Žiče",46.315,15.4797,"P","PPL","SI","","C4","","","",568,NULL,289,"Europe/Ljubljana","2014-04-25"
3186474,"Žibrše","Zibrse","Zibrse,Žibrše",45.9367,14.1761,"P","PPL","SI","",64,"","","",166,NULL,698,"Europe/Ljubljana","2014-04-25"
3186476,"Zibika","Zibika","Zibika",46.1939,15.5572,"P","PPL","SI","","C5","","","",186,NULL,242,"Europe/Ljubljana","2014-04-24"
3186480,"Zgornji Žerjavci","Zgornji Zerjavci","Zgornji Zerjavci,Zgornji Žerjavci",46.6019,15.8381,"P","PPLL","SI","","I3","","","",261,NULL,250,"Europe/Ljubljana","2014-04-25"
3186481,"Zgornji Velovlek","Zgornji Velovlek","Zgornji Velovlak,Zgornji Velovlek",46.4711,15.9047,"P","PPL","SI","","G1","","","",97,NULL,271,"Europe/Ljubljana","2014-04-26"
3186482,"Zgornji Tuhinj","Zgornji Tuhinj","Zgornji Tuhinj",46.2333,14.7833,"P","PPL","SI","","H6","","","",372,NULL,962,"Europe/Ljubljana","2014-04-24"
3186483,"Zgornji Slemen","Zgornji Slemen","Zgornji Slemen",46.5833,15.5167,"P","PPL","SI","","L5","","","",0,NULL,655,"Europe/Ljubljana","2012-05-06"
3186484,"Zgornji Razbor","Zgornji Razbor","Zgornji Razbor",46.4648,14.9899,"P","PPL","SI","","C2","","","",129,NULL,937,"Europe/Ljubljana","2014-04-27"
3186485,"Zgornji Porčič","Zgornji Porcic","Zgornji Porcic,Zgornji Porčič",46.5863,15.865,"P","PPLL","SI","","I3","","","",356,NULL,307,"Europe/Ljubljana","2014-04-26"
3186486,"Zgornji Otok","Zgornji Otok","Zgornji Otok",46.3529,14.2117,"P","PPL","SI","","A3","","","",64,NULL,535,"Europe/Ljubljana","2014-04-26"
3186487,"Zgornji Leskovec","Zgornji Leskovec","Ober Leskovec,Zgornji Leskovec",46.3303,15.9369,"P","PPL","SI","","N2","","","",157,NULL,222,"Europe/Ljubljana","2014-04-24"
3186488,"Zgornji Kašelj","Zgornji Kaselj","Zgornji Kaselj,Zgornji Kašelj",46.05,14.6167,"P","PPL","SI","",61,"","","",0,NULL,266,"Europe/Ljubljana","2014-04-06"
3186489,"Zgornji Kamenščak","Zgornji Kamenscak","Gornji Kamenscak,Gornji Kamenščak,Zgornji Kamenscak,Zgornji Kamenščak",46.5112,16.1377,"P","PPL","SI","","I6","","","",104,NULL,245,"Europe/Ljubljana","2014-04-26"
3186490,"Zgornji Jakobski Dol","Zgornji Jakobski Dol","Zgornji Jakobski Dol",46.6523,15.7163,"P","PPL","SI","",89,"","","",332,NULL,298,"Europe/Ljubljana","2014-04-27"
3186491,"Zgornji Hotič","Zgornji Hotic","Zgornji Hotic,Zgornji Hotič",46.1,14.8167,"P","PPL","SI","","I5","","","",252,NULL,459,"Europe/Ljubljana","2014-04-24"
3186492,"Zgornji Gasteraj","Zgornji Gasteraj","Zgornji Gasteraj",46.6361,15.7824,"P","PPL","SI","","P7","","","",126,NULL,307,"Europe/Ljubljana","2014-04-27"
3186493,"Zgornji Gabernik","Zgornji Gabernik","Zgornji Gabernik,Zgornji Gabrnik",46.2772,15.5725,"P","PPLL","SI","","A7","","","",140,NULL,426,"Europe/Ljubljana","2014-04-25"
3186494,"Zgornji Duplek","Zgornji Duplek","Zgornji Duplek",46.5136,15.7208,"P","PPL","SI","",26,"","","",1752,NULL,264,"Europe/Ljubljana","2014-04-24"
3186495,"Zgornji Čačič","Zgornji Cacic","Cacic,Zgornji Cacic,Zgornji Čačič,Čačič",45.545,14.7197,"P","PPL","SI","",88,"","","",9,NULL,611,"Europe/Ljubljana","2014-04-24"
3186496,"Zgornji Brnik","Zgornji Brnik","Zgorn'i-Brnik,Zgornji Brnik,Zgornji Brnjik,Згорньи-Брник",46.239,14.4844,"P","PPL","SI","",12,"","","",704,NULL,380,"Europe/Ljubljana","2017-02-11"
3186497,"Zgornji Boč","Zgornji Boc","Zgornji Boc,Zgornji Boč",46.5833,15.4667,"P","PPL","SI","","L5","","","",261,NULL,861,"Europe/Ljubljana","2014-04-24"
3186499,"Zgornje Vrtiče","Zgornje Vrtice","Zgornje Vrtice,Zgornje Vrtiče",46.6615,15.6173,"P","PPL","SI","","B3","","","",71,NULL,363,"Europe/Ljubljana","2014-04-25"
3186500,"Zgornje Verjane","Zgornje Verjane","Zgornje Verjane",46.5735,15.8922,"P","PPL","SI","","F9","","","",135,NULL,235,"Europe/Ljubljana","2014-04-27"
3186501,"Zgornje Tinsko","Zgornje Tinsko","Zgornje Tinsko",46.1706,15.5375,"P","PPL","SI","","C5","","","",142,NULL,229,"Europe/Ljubljana","2014-04-24"
3186502,"Zgornje Stranje","Zgornje Stranje","Zgornje Stranje",46.25,14.6,"P","PPL","SI","","H6","","","",424,NULL,417,"Europe/Ljubljana","2014-04-24"
3186503,"Zgornje Roje","Zgornje Roje","Zgornje Roje",46.25,15.1333,"P","PPL","SI","","N5","","","",130,NULL,261,"Europe/Ljubljana","2014-04-24"
3186504,"Zgornje Prebukovje","Zgornje Prebukovje","Zgornje Prebukovje",46.4328,15.5489,"P","PPL","SI","","L8","","","",171,NULL,638,"Europe/Ljubljana","2014-04-24"
3186505,"Zgornje Pobrežje","Zgornje Pobrezje","Zgornje Pobrezje",46.3,14.9,"P","PPL","SI","","O9","","","",112,NULL,412,"Europe/Ljubljana","2014-04-25"
3186506,"Zgornje Pirniče","Zgornje Pirnice","Zgornje Pirnice,Zgornje Pirniče",46.1425,14.4316,"P","PPL","SI","",71,"","","",1267,NULL,343,"Europe/Ljubljana","2014-04-26"
3186507,"Zgornje Palovče","Zgornje Palovce","Zgornje Palovce,Zgornje Palovice,Zgornje Paloviče,Zgornje Palovče",46.2133,14.6476,"P","PPL","SI","","H6","","","",40,NULL,691,"Europe/Ljubljana","2014-04-26"
3186508,"Zgornje Koseze","Zgornje Koseze","Zgornje Koseze",46.1494,14.8014,"P","PPL","SI","",77,"","","",90,NULL,480,"Europe/Ljubljana","2014-04-24"
3186509,"Zgornje Jezersko","Zgornje Jezersko","Zgornje Jezersko",46.3941,14.5066,"P","PPLA","SI","","H5","","","",568,NULL,985,"Europe/Ljubljana","2014-04-27"
3186510,"Zgornje Jarše","Zgornje Jarse","Zgornje Jarse,Zgornje Jarše",46.1623,14.5951,"P","PPL","SI","","G7","","","",385,NULL,320,"Europe/Ljubljana","2014-04-26"
3186511,"Zgornje Hoče","Zgornje Hoce","Hoce,Hoče,Zgornje Hoce,Zgornje Hoče",46.4918,15.6231,"P","PPL","SI","","H1","","","",676,NULL,323,"Europe/Ljubljana","2014-04-26"
3186512,"Zgornje Hlapje","Zgornje Hlapje","Zgornje Hlapje",46.6473,15.7268,"P","PPL","SI","",89,"","","",156,NULL,317,"Europe/Ljubljana","2014-04-26"
3186513,"Zgornje Grušovlje","Zgornje Grusovlje","Zgornje Grusovlje,Zgornje Grušovlje",46.275,15.11,"P","PPL","SI","","N5","","","",194,NULL,282,"Europe/Ljubljana","2014-04-25"
3186514,"Zgornje Gorje","Zgornje Gorje","Zgornje Gorje",46.3796,14.0694,"P","PPLA","SI","","O2","","","",500,NULL,609,"Europe/Ljubljana","2014-04-24"
3186515,"Zgornje Gorče","Zgornje Gorce","Zgornje Gorce,Zgornje Gorče",46.2988,15.0329,"P","PPL","SI","","F7","","","",65,NULL,306,"Europe/Ljubljana","2014-04-26"
3186516,"Zgornje Gameljne","Zgornje Gameljne","Zgornje Gameljne",46.1293,14.4908,"P","PPL","SI","",61,"","","",482,NULL,324,"Europe/Ljubljana","2014-04-26"
3186517,"Zgornje Duplje","Zgornje Duplje","Zgornje Duplje",46.3073,14.2912,"P","PPL","SI","",82,"","","",517,NULL,450,"Europe/Ljubljana","2014-04-26"
3186518,"Zgornje Dobrenje","Zgornje Dobrenje","Zgornje Dobrenje",46.654,15.6464,"P","PPL","SI","",89,"","","",87,NULL,291,"Europe/Ljubljana","2014-04-27"
3186519,"Zgornje Danje","Zgornje Danje","Zgornje Danje",46.2333,14.05,"P","PPL","SI","","F1","","","",4,NULL,1049,"Europe/Ljubljana","2014-04-24"
3186520,"Zgornje Bitnje","Zgornje Bitnje","Zgornje Bitnje",46.22,14.3367,"P","PPL","SI","",52,"","","",1480,NULL,386,"Europe/Ljubljana","2014-04-24"
3186521,"Zgornja Zadobrova","Zgornja Zadobrova","Zgornja Zadobrava,Zgornja Zadobrova",46.0667,14.6,"P","PPL","SI","",61,"","","",0,NULL,276,"Europe/Ljubljana","2012-01-19"
3186522,"Zgornja Voličina","Zgornja Volicina","Zgornja Volicina,Zgornja Voličina",46.5333,15.7833,"P","PPL","SI","",26,"","","",614,NULL,275,"Europe/Ljubljana","2014-04-24"
3186523,"Zgornja Vižinga","Zgornja Vizinga","Zgornja Vizinga,Zgornja Vižinga",46.6164,15.1986,"P","PPL","SI","","A2","","","",249,NULL,359,"Europe/Ljubljana","2014-04-25"
3186524,"Zgornja Velka","Zgornja Velka","Zgornja Velka",46.6753,15.7692,"P","PPLL","SI","","B3","","","",821,NULL,373,"Europe/Ljubljana","2014-04-24"
3186525,"Zgornja Sorica","Zgornja Sorica","Sorica,Zgornja Sorica,Zraz",46.2189,14.0303,"P","PPL","SI","","F1","","","",167,NULL,831,"Europe/Ljubljana","2014-04-24"
3186526,"Zgornja Šiška","Zgornja Siska","Zgornja Siska,Zgornja Šiška",46.0667,14.5,"P","PPLX","SI","",61,"","","",0,NULL,300,"Europe/Ljubljana","2014-04-06"
3186527,"Zgornja Senica","Zgornja Senica","Zgornja Senica",46.1545,14.3863,"P","PPL","SI","",71,"","","",279,NULL,344,"Europe/Ljubljana","2014-04-26"
3186528,"Zgornja Senarska","Zgornja Senarska","Zgornja Senarska",46.5653,15.8736,"P","PPL","SI","","P6","","","",118,NULL,237,"Europe/Ljubljana","2014-04-24"
3186529,"Zgornja Selnica","Zgornja Selnica","Zgornja Selnica",46.559,15.496,"P","PPL","SI","","L5","","","",428,NULL,410,"Europe/Ljubljana","2014-04-26"
3186530,"Zgornja Ročica","Zgornja Rocica","Zgornja Rocica,Zgornja Ročica",46.6305,15.8553,"P","PPL","SI","","F4","","","",67,NULL,300,"Europe/Ljubljana","2014-04-27"
3186531,"Zgornja Radovna","Zgornja Radovna","Zgornja Radovna",46.4333,13.9333,"P","PPL","SI","",53,"","","",73,NULL,840,"Europe/Ljubljana","2014-04-24"
3186532,"Zgornja Pristava","Zgornja Pristava","Zgornja Pristava",46.35,15.8333,"P","PPL","SI","","N2","","","",218,NULL,220,"Europe/Ljubljana","2014-04-24"
3186533,"Zgornja Polskava","Zgornja Polskava","Zgornja Polskava",46.4256,15.6122,"P","PPL","SI","","L8","","","",1208,NULL,294,"Europe/Ljubljana","2014-04-24"
3186534,"Zgornja Pohanca","Zgornja Pohanca","Gornja Pohanca,Zgornja Pohanca",45.9833,15.5667,"P","PPL","SI","","08","","","",104,NULL,315,"Europe/Ljubljana","2014-04-24"
3186535,"Zgornja Luša","Zgornja Lusa","Zgornja Lusa,Zgornja Luša",46.1833,14.2167,"P","PPL","SI","","B9","","","",101,NULL,471,"Europe/Ljubljana","2014-04-25"
3186536,"Ložnica","Loznica","",46.3333,15.65,"P","PPL","SI","","O5","","","",155,NULL,305,"Europe/Ljubljana","2014-04-27"
3186537,"Zgornja Lipnica","Zgornja Lipnica","Zgornja Lipnica",46.3252,14.1775,"P","PPL","SI","","A3","","","",168,NULL,537,"Europe/Ljubljana","2014-04-26"
3186538,"Zgornja Kungota","Zgornja Kungota","Ober Sankt Kunigund,Zgornja Kungota,Zgornja Spodnja Kungota,Zgornja Sveta Kungota",46.6392,15.6156,"P","PPLA","SI","",55,"","","",535,NULL,273,"Europe/Ljubljana","2014-04-27"
3186539,"Zgornja Kostrivnica","Zgornja Kostrivnica","Zgornja Kostrivnica",46.2631,15.5939,"P","PPL","SI","","A7","","","",147,NULL,289,"Europe/Ljubljana","2014-04-24"
3186540,"Zgornja Kapla","Zgornja Kapla","Zgornja Kapla",46.6389,15.3775,"P","PPL","SI","","K2","","","",169,NULL,727,"Europe/Ljubljana","2014-04-24"
3186541,"Jamnica","Jamnica","Jamnica,Zgornja Jamnica",46.6,14.8833,"P","PPL","SI","","K6","","","",78,NULL,821,"Europe/Ljubljana","2014-04-25"
3186542,"Zgornja Hrušica","Zgornja Hrusica","Zgornja Hrusica,Zgornja Hrušica",46.0333,14.5667,"P","PPL","SI","",61,"","","",0,NULL,303,"Europe/Ljubljana","2014-04-06"
3186543,"Zgornja Hajdina","Zgornja Hajdina","Zgornja Hajdina",46.4061,15.8386,"P","PPL","SI","","G9","","","",858,NULL,232,"Europe/Ljubljana","2014-04-24"
3186544,"Zgornja Draga","Zgornja Draga","Zgornja Draga",45.9415,14.7703,"P","PPL","SI","",39,"","","",132,NULL,385,"Europe/Ljubljana","2014-04-26"
3186545,"Zgornja Dobrava","Zgornja Dobrava","Zgornja Dobrava",46.3126,14.207,"P","PPL","SI","","A3","","","",159,NULL,520,"Europe/Ljubljana","2014-04-26"
3186546,"Zgornja Brežnica","Zgornja Breznica","Zgornja Breznica,Zgornja Brežnica",46.3369,15.5758,"P","PPL","SI","","L8","","","",76,NULL,276,"Europe/Ljubljana","2014-04-26"
3186547,"Zgornja Bistrica","Zgornja Bistrica","Zgornja Bistrica",46.3992,15.5424,"P","PPL","SI","","L8","","","",567,NULL,353,"Europe/Ljubljana","2014-04-26"
3186548,"Zgornja Besnica","Zgornja Besnica","Zgornja Besnica",46.2667,14.2833,"P","PPL","SI","",52,"","","",789,NULL,466,"Europe/Ljubljana","2014-04-24"
3186549,"Zgornja Bela","Zgornja Bela","Zgornja Bela",46.3,14.4,"P","PPL","SI","","K5","","","",317,NULL,490,"Europe/Ljubljana","2014-04-24"
3186552,"Zgonče","Zgonce","Zgonce,Zgonče",45.8317,14.5861,"P","PPL","SI","","D8","","","",8,NULL,598,"Europe/Ljubljana","2014-04-24"
3186557,"Žetale","Zetale","Obcina Zetale,Občina Žetale,Zetale,jetare,Žetale,ジェタレ",46.2736,15.8266,"P","PPLA","SI","","N6","","","",392,NULL,312,"Europe/Ljubljana","2014-04-27"
3186561,"Žerovinci","Zerovinci","Zerovinci,Žerovinci",46.4855,16.1539,"P","PPL","SI","","I6","","","",263,NULL,255,"Europe/Ljubljana","2014-04-26"
3186566,"Žepovci","Zepovci","Zepovci,Žepovci",46.6942,15.8697,"P","PPL","SI","","N9","","","",396,NULL,223,"Europe/Ljubljana","2014-04-25"
3186571,"Zenkovci","Zenkovci","Borostyan,Borostyán,Zenkovci,Zoltanhaza,Zoltánháza",46.7317,16.0861,"P","PPL","SI","",97,"","","",371,NULL,232,"Europe/Ljubljana","2014-04-24"
3186575,"Ženavlje","Zenavlje","Gyanafa,Zenavlje,Ženavlje",46.8414,16.1731,"P","PPL","SI","",31,"","","",109,NULL,357,"Europe/Ljubljana","2014-04-25"
3186577,"Zemelj","Zemelj","Zemelj",45.6121,15.2791,"P","PPL","SI","",73,"","","",61,NULL,169,"Europe/Ljubljana","2014-04-26"
3186579,"Zelše","Zelse","Zelse,Zelše",45.7986,14.3283,"P","PPL","SI","",13,"","","",107,NULL,581,"Europe/Ljubljana","2014-04-25"
3186585,"Željne","Zeljne","Sela,Zeljne,Željne",45.6586,14.8864,"P","PPL","SI","","H7","","","",555,NULL,473,"Europe/Ljubljana","2015-11-20"
3186605,"Želimlje","Zelimlje","Zelimlje,Želimlje",45.9156,14.5714,"P","PPL","SI","","C1","","","",416,NULL,362,"Europe/Ljubljana","2014-04-25"
3186606,"Železno","Zelezno","Zelezno,Železno",45.8808,14.9631,"P","PPL","SI","","D4","","","",51,NULL,282,"Europe/Ljubljana","2014-04-25"
3186607,"Železniki","Zelezniki","Zeleznica,Zelezniki,Železnica,Železniki",46.2248,14.1721,"P","PPLA","SI","","F1","","","",3075,NULL,513,"Europe/Ljubljana","2018-07-18"
3186620,"Zelen Breg","Zelen Breg","Zelen Breg",46.5798,14.9354,"P","PPL","SI","","K6","","","",162,NULL,710,"Europe/Ljubljana","2014-04-27"
3186627,"Žejno","Zejno","Zejno,Žejno",45.8667,15.6,"P","PPL","SI","","08","","","",104,NULL,369,"Europe/Ljubljana","2014-04-25"
3186628,"Žeje","Zeje","Zeie,Zeje,Žeje",45.7365,14.2334,"P","PPL","SI","",94,"","","",55,NULL,587,"Europe/Ljubljana","2014-04-27"
3186651,"Žebnik","Zebnik","Zebnik,Žebnik",46.0603,15.1462,"P","PPL","SI","",99,"","","",151,NULL,391,"Europe/Ljubljana","2014-04-26"
3186663,"Zdole","Zdole","Zdole",46.0906,15.552,"P","PPL","SI","",51,"","","",135,NULL,428,"Europe/Ljubljana","2014-04-26"
3186664,"Zdole","Zdole","Zdole",45.9772,15.5458,"P","PPL","SI","",54,"","","",287,NULL,305,"Europe/Ljubljana","2014-04-24"
3186667,"Zdenska Vas","Zdenska Vas","Zdenska Vas",45.8561,14.7053,"P","PPL","SI","",20,"","","",234,NULL,438,"Europe/Ljubljana","2014-04-24"
3186678,"Zbure","Zbure","Zbuke,Zbure",45.9056,15.2431,"P","PPL","SI","","P3","","","",162,NULL,194,"Europe/Ljubljana","2014-04-24"
3186686,"Zbilje","Zbilje","Zbilje",46.1667,14.4167,"P","PPL","SI","",52,"","","",837,NULL,350,"Europe/Ljubljana","2014-04-24"
3186687,"Zbigovci","Zbigovci","Zbigovci",46.6468,15.9678,"P","PPL","SI","",29,"","","",268,NULL,292,"Europe/Ljubljana","2014-04-26"
3186690,"Zbelovo","Zbelovo","Zbelovo",46.3,15.5333,"P","PPL","SI","","C4","","","",273,NULL,266,"Europe/Ljubljana","2014-04-24"
3186696,"Zazid","Zazid","Sasseto,Zazid",45.5019,13.9314,"P","PPL","SI","",50,"","","",70,NULL,383,"Europe/Ljubljana","2014-04-24"
3186697,"Žažar","Zazar","Zazar,Žažar",46.0092,14.2581,"P","PPL","SI","","H3","","","",169,NULL,448,"Europe/Ljubljana","2014-04-25"
3186698,"Zavrstnik","Zavrstnik","Zavrsnik,Zavrstnik",46.0472,14.8183,"P","PPL","SI","","L9","","","",364,NULL,285,"Europe/Ljubljana","2014-04-24"
3186699,"Završje","Zavrsje","Zavrsje,Završje",46.1,15.0333,"P","PPL","SI","","D3","","","",47,NULL,853,"Europe/Ljubljana","2014-04-25"
3186701,"Zavrh pri Borovnici","Zavrh pri Borovnici","Zaver,Zavrh,Zavrh pri Borovnici",45.9028,14.3464,"P","PPL","SI","","E5","","","",33,NULL,754,"Europe/Ljubljana","2014-04-24"
3186702,"Zavrh pod Smarno Goro","Zavrh pod Smarno Goro","Zaver,Zavrh,Zavrh pod Smarno Goro,Zavrh pod Šmarno Goro",46.1333,14.4667,"P","PPL","SI","",61,"","","",217,NULL,422,"Europe/Ljubljana","2014-09-12"
3186703,"Zavrh nad Dobrno","Zavrh nad Dobrno","Zaver,Zavrh,Zavrh nad Dobrno",46.35,15.25,"P","PPL","SI","","G3","","","",254,NULL,444,"Europe/Ljubljana","2014-04-24"
3186704,"Zavrh","Zavrh","Zaver,Zavrh,Zavrn",45.8311,14.5022,"P","PPL","SI","","F6","","","",12,NULL,778,"Europe/Ljubljana","2014-04-24"
3186705,"Zavrč","Zavrc","Zavrc,Zavrč",46.3917,16.0497,"P","PPLA","SI","","E9","","","",77,NULL,202,"Europe/Ljubljana","2014-04-27"
3186706,"Zavratec","Zavratec","Saurazzt,Zavratec",45.99,14.1319,"P","PPL","SI","",36,"","","",129,NULL,741,"Europe/Ljubljana","2014-04-24"
3186707,"Zavratec","Zavratec","",45.9599,15.3376,"P","PPL","SI","",54,"","","",92,NULL,375,"Europe/Ljubljana","2014-04-27"
3186713,"Zavodnje","Zavodnje","Zavodnje",46.4258,15.0178,"P","PPL","SI","","C7","","","",299,NULL,644,"Europe/Ljubljana","2014-04-24"
3186744,"Zastava","Zastava","Zastava",45.5833,15.2333,"P","PPL","SI","",17,"","","",13,NULL,178,"Europe/Ljubljana","2014-04-24"
3186756,"Zasavci","Zasavci","Zasavci,Zasavec",46.455,16.2314,"P","PPL","SI","",87,"","","",58,NULL,288,"Europe/Ljubljana","2014-04-24"
3186757,"Zasap","Zasap","Zasap",45.9,15.5167,"P","PPL","SI","","08","","","",56,NULL,156,"Europe/Ljubljana","2014-04-24"
3186769,"Zarečje","Zarecje","Sarecce,Zarecje,Zarečje",45.5736,14.2103,"P","PPL","SI","",38,"","","",147,NULL,436,"Europe/Ljubljana","2014-04-24"
3186771,"Zarečica","Zarecica","Sarecizza,Zarecica,Zarečica",45.5589,14.2267,"P","PPL","SI","",38,"","","",125,NULL,405,"Europe/Ljubljana","2014-04-24"
3186774,"Zapuže","Zapuze","Zapuze,Zapuže",46.3637,14.1913,"P","PPL","SI","","A3","","","",403,NULL,534,"Europe/Ljubljana","2014-04-26"
3186775,"Žapuže","Zapuze","Sapuse,Zapuze,Žapuže",45.8805,13.9187,"P","PPL","SI","","01","","","",377,NULL,124,"Europe/Ljubljana","2014-04-25"
3186779,"Zapreval","Zapreval","Za Prevalom,Zapreval",46.1737,14.1844,"P","PPL","SI","","B9","","","",28,NULL,962,"Europe/Ljubljana","2014-04-26"
3186782,"Zapotok","Zapotok","Zapotok",45.8769,14.5731,"P","PPL","SI","",37,"","","",295,NULL,620,"Europe/Ljubljana","2014-04-24"
3186783,"Zapotok","Zapotok","Zapotok",45.7608,14.6728,"P","PPL","SI","","M1","","","",181,NULL,565,"Europe/Ljubljana","2014-04-24"
3186785,"Zapoge","Zapoge","Zapoge",46.1803,14.4678,"P","PPL","SI","","E3","","","",266,NULL,341,"Europe/Ljubljana","2014-04-24"
3186788,"Zaplana","Zaplana","Zaplana",45.972,14.2309,"P","PPLL","SI","","E5","","","",114,NULL,626,"Europe/Ljubljana","2014-04-26"
3186805,"Zamostec","Zamostec","Zamostec",45.7583,14.6478,"P","PPL","SI","","M1","","","",227,NULL,532,"Europe/Ljubljana","2014-04-24"
3186812,"Zameško","Zamesko","Zamesko,Zameško",45.8833,15.3667,"P","PPL","SI","","B4","","","",99,NULL,159,"Europe/Ljubljana","2014-04-25"
3186813,"Žamenci","Zamenci","Zalmance,Zamenci,Žalmance,Žamenci",46.4406,15.9759,"P","PPL","SI","",24,"","","",72,NULL,214,"Europe/Ljubljana","2014-04-26"
3186824,"Žaloviče","Zalovice","Zalovce,Zalovice,Žaloviče,Žalovče",45.8667,15.2167,"P","PPL","SI","","P3","","","",102,NULL,333,"Europe/Ljubljana","2014-04-25"
3186828,"Zalog pri Cerkljah","Zalog pri Cerkljah","Zalog,Zalog pri Cerkljah",46.227,14.5209,"P","PPL","SI","","H8","","","",440,NULL,353,"Europe/Ljubljana","2014-04-27"
3186829,"Zalog","Zalog","Zalog",46.3333,14.35,"P","PPL","SI","",52,"","","",112,NULL,687,"Europe/Ljubljana","2014-04-24"
3186830,"Zalog","Zalog","Zalog",46.05,14.6167,"P","PPL","SI","",61,"","","",0,NULL,266,"Europe/Ljubljana","2014-04-06"
3186831,"Zalog","Zalog","Zalog",45.794,15.1204,"P","PPL","SI","","J7","","","",137,NULL,168,"Europe/Ljubljana","2014-04-26"
3186832,"Zalog","Zalog","Saloga di Postumia,Zalog",45.7669,14.1994,"P","PPL","SI","",94,"","","",0,NULL,530,"Europe/Ljubljana","2012-01-19"
3186833,"Žalna","Zalna","Zalna,Žalna",45.94,14.7072,"P","PPL","SI","",32,"","","",330,NULL,335,"Europe/Ljubljana","2014-04-25"
3186839,"Zali Log","Zali Log","Salilog,Zali Log",46.2,14.1,"P","PPL","SI","","F1","","","",253,NULL,740,"Europe/Ljubljana","2014-04-24"
3186843,"Občina Žalec","Obcina Zalec","Obcina Zalec,Občina Žalec,Opstina Zalec,Opština Žalec,Zalec,Žalec",46.2551,15.1727,"A","ADM1","SI","","N5","","","",21483,NULL,253,"Europe/Ljubljana","2014-04-22"
3186844,"Žalec","Zalec","Obcina Zalec,Občina Žalec,Zalec,jaretsu,Žalec,ジャレツ",46.2515,15.1648,"P","PPLA","SI","","N5","","","",4943,NULL,260,"Europe/Ljubljana","2014-04-27"
3186846,"Zala","Zala","Zala",45.8603,14.4586,"P","PPL","SI","",13,"","","",13,NULL,840,"Europe/Ljubljana","2014-04-24"
3186849,"Zakriž","Zakriz","Zakriz,Zakriž",46.1367,13.9728,"P","PPL","SI","",14,"","","",178,NULL,568,"Europe/Ljubljana","2014-04-25"
3186855,"Zakojca","Zakojca","Zakojca",46.1647,13.9328,"P","PPL","SI","",14,"","","",47,NULL,726,"Europe/Ljubljana","2014-04-24"
3186858,"Zakl","Zakl","Zakl",46.3225,15.8756,"P","PPL","SI","","K1","","","",212,NULL,247,"Europe/Ljubljana","2014-04-24"
3186865,"Zajelšje","Zajelsje","Zaielse,Zajelse,Zajelsje,Zajelše,Zajelšje",45.5619,14.1589,"P","PPL","SI","",38,"","","",53,NULL,535,"Europe/Ljubljana","2014-04-25"
3186866,"Zajčji Vrh pri Stopičah","Zajcji Vrh pri Stopicah","Zajcji Vrh,Zajčji Vrh",45.7715,15.2417,"P","PPL","SI","","J7","","","",91,NULL,392,"Europe/Ljubljana","2014-04-24"
3186867,"Zajčje Polje","Zajcje Polje","Zajcje Polje,Zajčje Polje",45.5964,14.8931,"P","PPL","SI","","H7","","","",32,NULL,474,"Europe/Ljubljana","2014-04-24"
3186888,"Zagradec","Zagradec","Zagradec",45.8614,14.8342,"P","PPL","SI","",39,"","","",113,NULL,269,"Europe/Ljubljana","2014-04-24"
3186899,"Zagrad","Zagrad","Zagrad",45.9333,15.25,"P","PPL","SI","","B8","","","",88,NULL,287,"Europe/Ljubljana","2014-04-24"
3186903,"Zagozdac","Zagozdac","Zagozdac",45.5239,15.0611,"P","PPL","SI","",17,"","","",21,NULL,389,"Europe/Ljubljana","2014-04-24"
3186904,"Zagozd","Zagozd","Zagozd",46.05,15.0333,"P","PPL","SI","","I5","","","",56,NULL,730,"Europe/Ljubljana","2014-04-24"
3186905,"Zagorje ob Savi","Zagorje ob Savi","Obcina Zagorje ob Savi,Občina Zagorje ob Savi,Opstina Zagorje ob Savi,Opština Zagorje ob Savi,Zagorje ob Savi",46.1297,14.9658,"A","ADM1","SI","","E7","","","",17044,NULL,518,"Europe/Ljubljana","2014-04-22"
3186906,"Zagorje ob Savi","Zagorje ob Savi","Gmina Zagorje ob Savi,Obcina Zagorje ob Savi,Občina Zagorje ob Savi,Zagore prie Savos,Zagore-ob-Savi,Zagorje,Zagorje ob Savi,Zagorė prie Savos,jagole-obeusabi,sa wa he pan zha ge lie,zaghry ab safy,zagryh ab sawy,Загорє-об-Саві,Загорје об Сави,زاغري أب سافي,زاگریه اب ساوی,زگورجے اب سوی,ザゴリェ・オプ・サヴィ,薩瓦河畔扎戈列,자고레오브사비",46.1318,14.9969,"P","PPLA","SI","","E7","","","",6439,NULL,244,"Europe/Ljubljana","2014-04-27"
3186908,"Zagorje","Zagorje","Zagorje,Zagorje pri Pilstanju,Zagorje pri Pilštanju",46.0839,15.4831,"P","PPL","SI","",51,"","","",190,NULL,403,"Europe/Ljubljana","2014-04-24"
3186909,"Zagorje","Zagorje","Sagoria,Sagoria San Martino,Sagorje,Sagória San Martino,Zagorje",45.6397,14.2244,"P","PPL","SI","",91,"","","",351,NULL,570,"Europe/Ljubljana","2014-04-24"
3186915,"Zagorica pri Velikem Gabru","Zagorica pri Velikem Gabru","Zagorica,Zagorica pri Velikem Gabru",45.9203,14.8917,"P","PPL","SI","","D4","","","",229,NULL,332,"Europe/Ljubljana","2014-04-24"
3186916,"Zagorica pri Dolskem","Zagorica pri Dolskem","Zagorica,Zagorica pri Dolskem",46.105,14.7087,"P","PPL","SI","",77,"","","",101,NULL,433,"Europe/Ljubljana","2014-04-26"
3186917,"Zagorica pri Dobrniču","Zagorica pri Dobrnicu","Zagorica,Zagorica pri Dobrnicu,Zagorica pri Dobrniču",45.8664,14.9719,"P","PPL","SI","","D4","","","",64,NULL,240,"Europe/Ljubljana","2014-04-24"
3186918,"Zagorica pri Čatežu","Zagorica pri Catezu","Zagorica,Zagorica pri Catezu,Zagorica pri Čatežu",45.9581,14.965,"P","PPL","SI","","D4","","","",34,NULL,391,"Europe/Ljubljana","2014-04-25"
3186920,"Zagorica","Zagorica","Zagorica",45.8497,14.7319,"P","PPL","SI","",20,"","","",245,NULL,598,"Europe/Ljubljana","2014-04-24"
3186921,"Zagorci","Zagorci","Zagorci",46.5167,15.9833,"P","PPL","SI","",42,"","","",322,NULL,247,"Europe/Ljubljana","2014-04-24"
3186930,"Zagon","Zagon","Sagona,Zagon",45.7933,14.1764,"P","PPL","SI","",94,"","","",194,NULL,545,"Europe/Ljubljana","2014-04-24"
3186940,"Žaga","Zaga","Saga,Zaga,Žaga",46.3094,13.4796,"P","PPL","SI","","06","","","",353,NULL,353,"Europe/Ljubljana","2017-03-18"
3186942,"Zadvor","Zadvor","Zadvor",46.0433,14.5956,"P","PPL","SI","",61,"","","",0,NULL,282,"Europe/Ljubljana","2013-04-04"
3186947,"Zadolje","Zadolje","Zadolje",45.7025,14.7283,"P","PPL","SI","","L1","","","",14,NULL,646,"Europe/Ljubljana","2014-04-24"
3186949,"Zadlog","Zadlog","Salloga d'Idria,Salloga d’Idria,Zadlog",45.9531,14.0164,"P","PPL","SI","",36,"","","",0,NULL,698,"Europe/Ljubljana","2012-01-19"
3186956,"Zabukovje nad Sevnico","Zabukovje nad Sevnico","Zabukovje,Zabukovje nad Sevnico",46.055,15.3675,"P","PPL","SI","","B6","","","",181,NULL,535,"Europe/Ljubljana","2014-04-24"
3186957,"Zabukovje","Zabukovje","Zabukovje",45.9833,15.05,"P","PPL","SI","","P2","","","",84,NULL,369,"Europe/Ljubljana","2014-04-24"
3186958,"Gorenje Zabukovje","Gorenje Zabukovje","",45.9167,15.1167,"P","PPL","SI","","O7","","","",43,NULL,494,"Europe/Ljubljana","2014-04-25"
3186959,"Zabukovica","Zabukovica","Zabukovica",46.2141,15.1595,"P","PPL","SI","","N5","","","",1009,NULL,330,"Europe/Ljubljana","2014-05-01"
3186962,"Zabreznica","Zabreznica","Zabreznica",46.4,14.15,"P","PPL","SI","","N7","","","",507,NULL,613,"Europe/Ljubljana","2014-04-24"
3186963,"Zabrdo","Zabrdo","Zabrdo",46.2333,14.0667,"P","PPL","SI","","F1","","","",5,NULL,1154,"Europe/Ljubljana","2014-04-24"
3186977,"Zabovci","Zabovci","Zabovci",46.4,15.9167,"P","PPL","SI","","J3","","","",461,NULL,224,"Europe/Ljubljana","2014-04-24"
3186978,"Zaboršt pri Šentvidu","Zaborst pri Sentvidu","Zaborst,Zaborst pri Sentvidu,Zaboršt,Zaboršt pri Šentvidu",45.9647,14.87,"P","PPL","SI","",39,"","","",90,NULL,358,"Europe/Ljubljana","2014-04-25"
3186994,"Žabnica","Zabnica","Zabnica,Žabnica",46.1986,14.3331,"P","PPL","SI","",52,"","","",332,NULL,373,"Europe/Ljubljana","2014-04-25"
3187007,"Žabjek","Zabjek","Zabjak,Zabjek,Žabjak,Žabjek",45.9466,14.9562,"P","PPL","SI","",39,"","","",22,NULL,342,"Europe/Ljubljana","2014-05-01"
3187009,"Zabiče","Zabice","Zabice,Zabice Castelvecchio,Zabiče,Zàbice Castèlvecchio",45.5075,14.3693,"P","PPL","SI","",38,"","","",298,NULL,534,"Europe/Ljubljana","2014-04-27"
3187015,"Zadlaz-Žabče","Zadlaz-Zabce","Rauna di Sabbice,Zabce,Žabče",46.2085,13.7667,"P","PPL","SI","","D2","","","",36,NULL,545,"Europe/Ljubljana","2014-04-27"
3187016,"Zabavlje","Zabavlje","Zabavia,Zabavje,Zabavlje",45.5017,13.8422,"P","PPL","SI","",50,"","","",22,NULL,359,"Europe/Ljubljana","2014-04-24"
3187020,"Vuzenica","Vuzenica","Vuzenica",46.5964,15.1672,"P","PPLA","SI","","E6","","","",1580,NULL,350,"Europe/Ljubljana","2014-04-27"
3187024,"Vurmat","Vurmat","Vurmat",46.6,15.4167,"P","PPL","SI","","K2","","","",0,NULL,598,"Europe/Ljubljana","2012-05-06"
3187078,"Vuhred","Vuhred","Vuhred,Wuchern",46.5947,15.2375,"P","PPL","SI","","A2","","","",782,NULL,344,"Europe/Ljubljana","2014-04-27"
3187083,"Vučja Vas","Vucja Vas","Vucja Vas,Vucja Ves,Vučja Vas,Vučja Ves",46.5994,16.1075,"P","PPL","SI","","I1","","","",252,NULL,185,"Europe/Ljubljana","2014-04-24"
3187090,"Vučja Gomila","Vucja Gomila","Volcja Gomila,Volčja Gomila,Vuca Gomila,Vucegomila,Vucegomilje,Vucja Gomila,Vuča Gomila,Vučegomila,Vučegomilje,Vučja Gomila,Zsidahegy",46.7019,16.2868,"P","PPL","SI","",78,"","","",289,NULL,210,"Europe/Ljubljana","2014-04-27"
3187111,"Vrzdenec","Vrzdenec","Vrzdenec",46.0203,14.2708,"P","PPL","SI","","H3","","","",503,NULL,385,"Europe/Ljubljana","2014-04-24"
3187124,"Vrtoče","Vrtoce","Vertazzi,Vrtoce,Vrtovce,Vrtovče,Vrtoče",45.8825,13.6164,"P","PPL","SI","","J5","","","",57,NULL,58,"Europe/Ljubljana","2014-04-24"
3187125,"Vrtojba","Vrtojba","Vertoiba in Campi Santi,Vrtojba",45.9125,13.6342,"P","PPL","SI","","L6","","","",2591,NULL,61,"Europe/Ljubljana","2014-04-27"
3187137,"Vrsno","Vrsno","Ursina,Vrsno",46.2245,13.6446,"P","PPL","SI","",46,"","","",131,NULL,594,"Europe/Ljubljana","2014-05-11"
3187138,"Vršnik","Vrsnik","Vrsnik,Vršnik",46.6333,15.5667,"P","PPL","SI","",55,"","","",118,NULL,385,"Europe/Ljubljana","2014-04-25"
3187176,"Vrhtrebnje","Vrhtrebnje","Vrhtrebnje,Vrhtrebno",45.8922,15.0002,"P","PPL","SI","","D4","","","",85,NULL,542,"Europe/Ljubljana","2014-04-26"
3187178,"Vrh pri Sobračah","Vrh pri Sobracah","Vrh",45.9857,14.8822,"P","PPL","SI","SI","D4","","","",24,NULL,370,"Europe/Ljubljana","2014-05-01"
3187179,"Vrh pri Poljanah","Vrh pri Poljanah","Vrh,Vrh pri Poljanah",45.8128,14.7,"P","PPL","SI","",20,"","","",3,NULL,779,"Europe/Ljubljana","2014-04-24"
3187180,"Vrh pri Ljubnu","Vrh pri Ljubnu","Vrh,Vrh pri Ljubnu",45.7761,15.117,"P","PPL","SI","","J7","","","",84,NULL,210,"Europe/Ljubljana","2016-02-25"
3187181,"Vrh pri Fari","Vrh pri Fari","Vrh,Vrh pri Fari",45.4914,14.8992,"P","PPL","SI","","H9","","","",25,NULL,457,"Europe/Ljubljana","2014-04-24"
3187182,"Vrhpolje pri Moravčah","Vrhpolje pri Moravcah","Vrhpolje,Vrhpolje pri Moravcah,Vrhpolje pri Moravčah",46.1261,14.7081,"P","PPL","SI","",77,"","","",227,NULL,381,"Europe/Ljubljana","2014-04-26"
3187183,"Vrhpolje pri Kamniku","Vrhpolje pri Kamniku","Vrhpolje,Vrhpolje pri Kamniku",46.2333,14.6333,"P","PPL","SI","","H6","","","",737,NULL,390,"Europe/Ljubljana","2014-04-24"
3187184,"Vrhpolje","Vrhpolje","Verpogliano,Vrhpolje",45.8644,13.9614,"P","PPL","SI","","E1","","","",549,NULL,137,"Europe/Ljubljana","2014-04-24"
3187185,"Vrhpolje","Vrhpolje","Verpoglie,Vrhpolje",45.63,13.9311,"P","PPL","SI","",35,"","","",68,NULL,536,"Europe/Ljubljana","2014-04-24"
3187189,"Vrhpeč","Vrhpec","Vrhpec,Vrhpeč",45.8833,15.0667,"P","PPL","SI","","D4","","","",90,NULL,320,"Europe/Ljubljana","2014-04-24"
3187190,"Vrhovo pri Žužemberku","Vrhovo pri Zuzemberku","Vrhovo,Vrhovo pri Zuzemberku,Vrhovo pri Žužemberku",45.8536,14.9028,"P","PPL","SI","","N8","","","",23,NULL,290,"Europe/Ljubljana","2014-04-25"
3187191,"Vrhovo","Vrhovo","Vrhovo",46.0403,15.2167,"P","PPL","SI","",99,"","","",250,NULL,206,"Europe/Ljubljana","2014-04-24"
3187193,"Vrhovlje pri Kojskem","Vrhovlje pri Kojskem","Vercoglie di Quisca,Vergoglie,Vrhovije,Vrhovlje,Vrhovlje pri Kojskem",46.0244,13.5753,"P","PPL","SI","","07","","","",113,NULL,395,"Europe/Ljubljana","2014-04-24"
3187194,"Vrhovlje","Vrhovlje","Vercogliano di Monrupino,Vrhovlje",45.7286,13.8236,"P","PPL","SI","","B7","","","",92,NULL,376,"Europe/Ljubljana","2014-04-24"
3187204,"Vrhov Dol","Vrhov Dol","Vrhov Dol",46.5286,15.5579,"P","PPL","SI","","J2","","","",106,NULL,542,"Europe/Ljubljana","2014-04-26"
3187211,"Vrhole pri Laporju","Vrhole pri Laporju","Vrhole,Vrhole pri Laporju",46.3248,15.6195,"P","PPL","SI","","O8","","","",167,NULL,317,"Europe/Ljubljana","2014-04-26"
3187212,"Vrhnika pri Ložu","Vrhnika pri Lozu","Vrhnika,Vrhnika pri Lozu,Vrhnika pri Ložu",45.708,14.5271,"P","PPL","SI","","I7","","","",153,NULL,1100,"Europe/Ljubljana","2014-04-27"
3187213,"Vrhnika","Vrhnika","Obcina Vrhnika,Občina Vrhnika,Opstina Vrhnika,Opština Vrhnika,Vrhnika",45.9614,14.2927,"A","ADM1","SI","","E5","","","",16291,NULL,295,"Europe/Ljubljana","2014-04-22"
3187214,"Vrhnika","Vrhnika","Nauporto,Ober-Laibach,Vrhnika,Vrkhnika,Врхника",45.9635,14.2948,"P","PPLA","SI","","E5","","","",8413,NULL,297,"Europe/Ljubljana","2014-05-01"
3187215,"Vrh nad Rovtami","Vrh nad Rovtami","Sveti Trije Kralji,Vrh nad Rovtami",46.0167,14.1667,"P","PPL","SI","",64,"","","",0,NULL,745,"Europe/Ljubljana","2012-01-19"
3187216,"Vrh nad Krašnjo","Vrh nad Krasnjo","Vrh,Vrh nad Krasnjo,Vrh nad Krašnjo",46.1833,14.7667,"P","PPL","SI","",68,"","","",55,NULL,647,"Europe/Ljubljana","2014-04-25"
3187217,"Vrhloga","Vrhloga","Vrhloga",46.3667,15.6333,"P","PPL","SI","","L8","","","",255,NULL,259,"Europe/Ljubljana","2014-04-24"
3187219,"Vrhje","Vrhje","Vrhje",45.95,15.6833,"P","PPL","SI","","08","","","",227,NULL,179,"Europe/Ljubljana","2014-04-24"
3187221,"Vrhe","Vrhe","Vrhe",46.5333,15.0333,"P","PPL","SI","","C2","","","",327,NULL,463,"Europe/Ljubljana","2014-04-24"
3187223,"Vrh","Vrh","Vrh",45.9833,15.1,"P","PPL","SI","","P2","","","",106,NULL,304,"Europe/Ljubljana","2014-04-24"
3187237,"Vremski Britof","Vremski Britof","Britof,Cave Auremiane,Vremski Britof",45.6571,14.0301,"P","PPL","SI","",19,"","","",52,NULL,387,"Europe/Ljubljana","2015-11-02"
3187254,"Vrčice","Vrcice","Vrcice,Vrčice",45.65,15.15,"P","PPL","SI","","B1","","","",45,NULL,494,"Europe/Ljubljana","2014-04-24"
3187259,"Vrbovo","Vrbovo","Verbovo,Vrbovo",45.5522,14.2756,"P","PPL","SI","",38,"","","",295,NULL,423,"Europe/Ljubljana","2014-04-24"
3187266,"Vrbovec","Vrbovec","Vrbovec",45.8664,15.0031,"P","PPL","SI","","D4","","","",102,NULL,311,"Europe/Ljubljana","2014-04-24"
3187268,"Vrbovec","Vrbovec","Vrbovec",45.7272,14.8392,"P","PPL","SI","","H7","","","",0,NULL,615,"Europe/Ljubljana","2012-01-19"
3187280,"Vrbljene","Vrbljene","Vrbljene",45.9525,14.4922,"P","PPL","SI","",37,"","","",241,NULL,306,"Europe/Ljubljana","2014-04-24"
3187281,"Vrbje","Vrbje","Vrbje",46.25,15.15,"P","PPL","SI","","N5","","","",626,NULL,257,"Europe/Ljubljana","2014-04-24"
3187306,"Vrba","Vrba","Vrba",46.3833,14.15,"P","PPL","SI","","N7","","","",203,NULL,521,"Europe/Ljubljana","2014-04-24"
3187315,"Vratno","Vratno","Vratno",45.8,15.35,"P","PPL","SI","","B4","","","",63,NULL,555,"Europe/Ljubljana","2014-04-24"
3187319,"Vratja Vas","Vratja Vas","Vratja Vas",46.7167,15.8,"P","PPL","SI","","N9","","","",90,NULL,226,"Europe/Ljubljana","2014-04-24"
3187327,"Vrata","Vrata","Vrata",46.6174,15.0918,"P","PPL","SI","",25,"","","",107,NULL,756,"Europe/Ljubljana","2014-04-24"
3187336,"Vransko","Vransko","Franz,Vransko",46.2439,14.9514,"P","PPLA","SI","","N4","","","",778,NULL,342,"Europe/Ljubljana","2014-04-27"
3187343,"Vranoviči","Vranovici","Vranovici,Vranoviči",45.5972,15.2217,"P","PPL","SI","",73,"","","",109,NULL,175,"Europe/Ljubljana","2014-04-26"
3187359,"Vranje","Vranje","Vranje",46.0333,15.35,"P","PPL","SI","","B6","","","",104,NULL,271,"Europe/Ljubljana","2014-04-24"
3187392,"Vrabče","Vrabce","Monte Urabice,Urabtsche,Vrabce,Vrabče",45.7764,13.9594,"P","PPL","SI","","B7","","","",50,NULL,491,"Europe/Ljubljana","2014-04-24"
3187399,"Vošče","Vosce","Vosce,Vošče",46.3333,14.15,"P","PPL","SI","","A3","","","",56,NULL,570,"Europe/Ljubljana","2014-04-25"
3187425,"Volčji Potok","Volcji Potok","Volcji Potok,Volčji Potok",46.2,14.6167,"P","PPL","SI","","H6","","","",381,NULL,393,"Europe/Ljubljana","2014-04-24"
3187426,"Volčji Grad","Volcji Grad","Castel Voltiano,Volci,Volcji Grad,Volčji Grad",45.8,13.7492,"P","PPL","SI","",49,"","","",90,NULL,243,"Europe/Ljubljana","2014-04-24"
3187427,"Volčja Jama","Volcja Jama","Volcja Jama,Volcje Jame,Volčja Jama,Volčje Jame",45.8746,14.9318,"P","PPL","SI","","D4","","","",16,NULL,351,"Europe/Ljubljana","2014-04-26"
3187428,"Volčja Draga","Volcja Draga","Valvolciana,Volcja Draga,Volčja Draga",45.9069,13.6775,"P","PPLA","SI","","P1","","","",743,NULL,74,"Europe/Ljubljana","2014-04-27"
3187429,"Volče","Volce","Volzana",46.1754,13.7079,"P","PPL","SI","SI","D2","","","",588,NULL,201,"Europe/Ljubljana","2014-04-24"
3187430,"Volče","Volce","Volce,Volce Auremiano,Volče",45.6961,14.1156,"P","PPL","SI","",91,"","","",53,NULL,802,"Europe/Ljubljana","2015-11-08"
3187431,"Volča","Volca","Volca,Volča",46.1333,14.1833,"P","PPL","SI","",27,"","","",110,NULL,485,"Europe/Ljubljana","2014-04-24"
3187432,"Volavlje","Volavlje","Volavlje",46.0339,14.7172,"P","PPL","SI","",61,"","","",177,NULL,645,"Europe/Ljubljana","2014-04-24"
3187434,"Volarje","Volarje","Volarje,Vollaria",46.2099,13.6716,"P","PPL","SI","","D2","","","",239,NULL,185,"Europe/Ljubljana","2014-05-11"
3187438,"Voklo","Voklo","Voklo",46.2161,14.4231,"P","PPL","SI","","B2","","","",507,NULL,374,"Europe/Ljubljana","2014-04-24"
3187442,"Vojsko","Vojsko","Vojsko,Voschia,Woiska",46.025,13.9067,"P","PPL","SI","",36,"","","",209,NULL,1046,"Europe/Ljubljana","2014-04-24"
3187443,"Vojščica","Vojscica","Voischizza,Voisizza di Comeno,Voissizza,Vojscica,Vojščica",45.8286,13.6717,"P","PPL","SI","","J5","","","",227,NULL,297,"Europe/Ljubljana","2014-04-25"
3187448,"Vojnik","Vojnik","Vojnik",46.2933,15.3033,"P","PPLA","SI","","N3","","","",2292,NULL,274,"Europe/Ljubljana","2014-04-27"
3187461,"Vogrsko","Vogrsko","Ville Montevecchio,Vogersko,Vogrsko",45.9061,13.7006,"P","PPL","SI","","P1","","","",885,NULL,75,"Europe/Ljubljana","2014-04-24"
3187465,"Voglje","Voglje","Voglje",46.2156,14.4386,"P","PPL","SI","","B2","","","",668,NULL,373,"Europe/Ljubljana","2014-04-24"
3187466,"Voglje","Voglje","Voalje,Vogliano,Voglje",45.7314,13.8075,"P","PPL","SI","","B7","","","",69,NULL,367,"Europe/Ljubljana","2014-04-24"
3187467,"Voglarji","Voglarji","Carbonari,Voglarji",45.9894,13.7353,"P","PPL","SI","",84,"","","",109,NULL,754,"Europe/Ljubljana","2014-04-24"
3187471,"Vodranci","Vodranci","Vodranci",46.4315,16.2553,"P","PPL","SI","",87,"","","",132,NULL,216,"Europe/Ljubljana","2014-04-26"
3187484,"Vodice pri Gabrovki","Vodice pri Gabrovki","Vodice,Vodice pri Gabrovki",46.0167,14.9833,"P","PPL","SI","","I5","","","",42,NULL,677,"Europe/Ljubljana","2014-04-24"
3187485,"Vodice","Vodice","Woditz",46.1899,14.4949,"P","PPLA","SI","","E3","","","",1589,NULL,338,"Europe/Ljubljana","2014-04-27"
3187486,"Vodice","Vodice","Vodice,Zodize in Selva di Piro",45.8822,14.0817,"P","PPL","SI","","01","","","",65,NULL,1018,"Europe/Ljubljana","2014-04-24"
3187505,"Vnanje Gorice","Vnanje Gorice","Vnanje Gorice",46.0072,14.4219,"P","PPL","SI","","09","","","",2195,NULL,296,"Europe/Ljubljana","2014-04-27"
3187506,"Vnajnarje","Vnajnarje","Vnajnarje,Vnasjnarje",46.0444,14.6767,"P","PPL","SI","",61,"","","",118,NULL,656,"Europe/Ljubljana","2014-04-24"
3187564,"Vižmarje","Vizmarje","Vizmarje,Vižmarje",46.1167,14.4667,"P","PPL","SI","",61,"","","",0,NULL,299,"Europe/Ljubljana","2016-03-10"
3187571,"Vitovlje","Vitovlje","Vitovlje,Vittuglia",45.9392,13.7656,"P","PPL","SI","",84,"","","",526,NULL,445,"Europe/Ljubljana","2014-04-24"
3187575,"Vitomarci","Vitomarci","Vitomarci",46.5275,15.9394,"P","PPLA","SI","","M4","","","",329,NULL,254,"Europe/Ljubljana","2014-04-27"
3187598,"Vitanje","Vitanje","Vitanje,Weitenstein",46.3817,15.2958,"P","PPLA","SI","","E2","","","",865,NULL,453,"Europe/Ljubljana","2014-04-27"
3187600,"Vitan","Vitan","Vitan",46.4413,16.2377,"P","PPL","SI","",87,"","","",92,NULL,242,"Europe/Ljubljana","2014-04-26"
3187606,"Visoko","Visoko","Visoko",46.2711,14.4181,"P","PPL","SI","","B2","","","",877,NULL,438,"Europe/Ljubljana","2014-04-27"
3187608,"Visoko","Visoko","Visoko",45.8853,14.5831,"P","PPL","SI","",37,"","","",211,NULL,602,"Europe/Ljubljana","2014-04-24"
3187654,"Višnjevik","Visnjevik","Visnjevik,Visnovicco,Višnjevik",46.0217,13.5403,"P","PPL","SI","","07","","","",149,NULL,191,"Europe/Ljubljana","2014-04-25"
3187658,"Višnje","Visnje","Visne,Visnje,Višnje",45.8706,14.0283,"P","PPL","SI","","01","","","",178,NULL,750,"Europe/Ljubljana","2014-04-25"
3187659,"Višnje","Visnje","Visnje,Višnje",45.8054,14.835,"P","PPL","SI","",39,"","","",92,NULL,417,"Europe/Ljubljana","2014-04-26"
3187661,"Višnja Vas","Visnja Vas","Visnja Vas,Višnja Vas",46.3,15.3,"P","PPL","SI","","N3","","","",233,NULL,269,"Europe/Ljubljana","2014-04-25"
3187663,"Višnja Gora","Visnja Gora","Vishna Gora,Vishnja Gora,Visnja Gora,Višnja Gora,Weixelburg,fyshynja ghra,wyshnya gra,Вишня Гора,Вишња Гора,فيشينجا غرا,ویشنیا گرا",45.9539,14.7453,"P","PPL","SI","",39,"","","",1000,NULL,382,"Europe/Ljubljana","2014-04-25"
3187676,"Viševek","Visevek","Visevek,Viševek",45.6964,14.4908,"P","PPL","SI","","I7","","","",174,NULL,581,"Europe/Ljubljana","2014-04-25"
3187680,"Visejec","Visejec","Visejec",45.8161,14.8644,"P","PPL","SI","","N8","","","",88,NULL,386,"Europe/Ljubljana","2014-04-24"
3187689,"Virštanj","Virstanj","Virstajn,Virstanj,Virštajn,Virštanj",46.1325,15.5621,"P","PPL","SI","",51,"","","",204,NULL,326,"Europe/Ljubljana","2014-04-27"
3187690,"Vir pri Stični","Vir pri Sticni","Vir,Vir pri Sticni,Vir pri Stični",45.9525,14.8178,"P","PPL","SI","",39,"","","",454,NULL,411,"Europe/Ljubljana","2014-04-27"
3187696,"Virmaše","Virmase","Virmase,Virmaše",46.1833,14.3333,"P","PPL","SI","","B9","","","",673,NULL,361,"Europe/Ljubljana","2014-04-25"
3187704,"Vipavski Križ","Vipavski Kriz","Santa Croce di Aidas,Vipavski Kriz,Vipavski Križ",45.8822,13.8622,"P","PPL","SI","","01","","","",196,NULL,149,"Europe/Ljubljana","2014-04-25"
3187706,"Vipava","Vipava","Obcina Vipava,Občina Vipava,Vipacco,Vipava,Vippaco,vu~ipavu~a,Випава,ヴィパーヴァ",45.8467,13.9631,"P","PPLA","SI","","E1","","","",1771,NULL,110,"Europe/Ljubljana","2014-04-27"
3187711,"Vintarovci","Vintarovci","Vintarovci",46.4833,15.8658,"P","PPLL","SI","","G1","","","",362,NULL,276,"Europe/Ljubljana","2014-04-24"
3187712,"Vintarjevec","Vintarjevec","Vintarjevec",46.0167,14.8333,"P","PPL","SI","","L9","","","",160,NULL,349,"Europe/Ljubljana","2014-04-24"
3187723,"Vinji Vrh pri Semiču","Vinji Vrh pri Semicu","Vinji Vrh,Vinji Vrh pri Semicu,Vinji Vrh pri Semiču",45.6333,15.2,"P","PPL","SI","","B1","","","",48,NULL,198,"Europe/Ljubljana","2014-04-24"
3187726,"Vinje","Vinje","Vinje",46.1167,14.6667,"P","PPL","SI","",22,"","","",477,NULL,410,"Europe/Ljubljana","2014-04-24"
3187734,"Vinica pri Šmarjeti","Vinica pri Smarjeti","Vinica,Vinica pri Smarjeti,Vinica pri Šmarjeti,Vinjice",45.9,15.2667,"P","PPL","SI","","P3","","","",94,NULL,211,"Europe/Ljubljana","2015-12-03"
3187736,"Vinica","Vinica","Vinica",45.4602,15.254,"P","PPL","SI","",17,"","","",241,NULL,186,"Europe/Ljubljana","2014-04-26"
3187801,"Vidonci","Vidonci","Vidonce,Vidonci,Vidorlak",46.8139,16.1361,"P","PPL","SI","",97,"","","",317,NULL,384,"Europe/Ljubljana","2014-04-24"
3187808,"Videž","Videz","Videz,Videž",46.3667,15.5667,"P","PPL","SI","","L8","","","",159,NULL,280,"Europe/Ljubljana","2014-04-25"
3187811,"Videm","Videm","Sveti Jurij,Sveti Jurij ob Scavnici,Sveti Jurij ob Ščavnici,Videm,Videm ob Scavnici,Videm ob Ščavnici,Widem",46.5711,16.0233,"P","PPL","SI","","D1","","","",0,NULL,214,"Europe/Ljubljana","2012-02-02"
3187812,"Videm","Videm","",45.9667,15.5,"P","PPL","SI","",54,"","","",0,NULL,287,"Europe/Ljubljana","2008-11-06"
3187813,"Videm","Videm","Videm,Videm  Dobrepolje,Widem",45.85,14.6942,"P","PPLA","SI","",20,"","","",577,NULL,439,"Europe/Ljubljana","2014-04-27"
3187818,"Vič","Vic","Vic,Vič",46.05,14.4833,"P","PPLX","SI","",61,"","","",0,NULL,299,"Europe/Ljubljana","2016-03-10"
3187819,"Vič","Vic","Vic,Vič",46.6,15,"P","PPL","SI","",25,"","","",241,NULL,398,"Europe/Ljubljana","2014-04-24"
3187823,"Vevče","Vevce","Velce,Velče,Vevce,Vevče",46.05,14.6,"P","PPL","SI","",61,"","","",0,NULL,275,"Europe/Ljubljana","2012-01-19"
3187828,"Vetrnik","Vetrnik","",46.0667,15.5167,"P","PPL","SI","",51,"","","",132,NULL,585,"Europe/Ljubljana","2014-04-25"
3187838,"Veščica","Vescica","Vescica,Vescica pri Murski Soboti,Veščica,Veščica pri Murski Soboti",46.6667,16.1333,"P","PPL","SI","",80,"","","",436,NULL,192,"Europe/Ljubljana","2014-04-25"
3187840,"Veržej","Verzej","Verzej,Veržej",46.5836,16.1653,"P","PPLA","SI","","N1","","","",903,NULL,182,"Europe/Ljubljana","2014-04-27"
3187847,"Vernek","Vernek","Vernek",46.1,14.8,"P","PPL","SI","","I5","","","",50,NULL,273,"Europe/Ljubljana","2014-04-24"
3187853,"Verdun pri Uršnih Selih","Verdun pri Ursnih Selih","Verdun,Verdun pri Ursnih Selah,Verdun pri Uršnih Selah",45.7167,15.1,"P","PPL","SI","","G6","","","",63,NULL,229,"Europe/Ljubljana","2014-04-25"
3187855,"Verd","Verd","Verd",45.9567,14.3058,"P","PPL","SI","","E5","","","",1891,NULL,293,"Europe/Ljubljana","2014-04-27"
3187861,"Veniše","Venise","Venise,Veniše",45.9333,15.4667,"P","PPL","SI","",54,"","","",250,NULL,213,"Europe/Ljubljana","2014-04-25"
3187869,"Velka","Velka","Marija Snezna,Marija Snežna,Velka",46.6767,15.7706,"P","PPL","SI","","B3","","","",0,NULL,399,"Europe/Ljubljana","2012-02-02"
3187918,"Veliko Ubeljsko","Veliko Ubeljsko","Oblisca Grande,Veliko Ubeljsko",45.78,14.0663,"P","PPL","SI","",94,"","","",87,NULL,715,"Europe/Ljubljana","2014-04-26"
3187921,"Veliko Trebeljevo","Veliko Trebeljevo","Veliko Trebeljevo",46.0122,14.7403,"P","PPL","SI","",61,"","","",95,NULL,569,"Europe/Ljubljana","2014-04-24"
3187922,"Veliko Tinje","Veliko Tinje","Veliko Tinje",46.4122,15.5122,"P","PPL","SI","","L8","","","",148,NULL,654,"Europe/Ljubljana","2014-04-24"
3187927,"Veliko Širje","Veliko Sirje","Veliko Sirje,Veliko Širje",46.1024,15.1915,"P","PPL","SI","",57,"","","",271,NULL,423,"Europe/Ljubljana","2014-04-27"
3187930,"Veliko Polje","Veliko Polje","Poglie,Polje,Veliko Polje",45.7678,13.9758,"P","PPL","SI","","B7","","","",66,NULL,561,"Europe/Ljubljana","2014-04-24"
3187934,"Veliko Mraševo","Veliko Mrasevo","Veliko Mrasevo,Veliko Mraševo",45.8833,15.4833,"P","PPL","SI","",54,"","","",262,NULL,179,"Europe/Ljubljana","2014-04-25"
3187935,"Veliko Mlačevo","Veliko Mlacevo","Veliko Mlacevo,Veliko Mlačevo",45.9369,14.6817,"P","PPL","SI","",32,"","","",538,NULL,343,"Europe/Ljubljana","2014-04-24"
3187942,"Veliko Črnelo","Veliko Crnelo","Veliko Crnelo,Veliko Črnelo",45.9275,14.7983,"P","PPL","SI","",39,"","","",86,NULL,341,"Europe/Ljubljana","2014-04-24"
3187946,"Veliko Brdo","Veliko Brdo","Berdo di Elsane,Veliko Brdo",45.5119,14.2169,"P","PPL","SI","",38,"","","",106,NULL,592,"Europe/Ljubljana","2014-04-24"
3187959,"Veliki Vrh pri Šmarju","Veliki Vrh pri Smarju","Veliki Vrh pri Smarju,Veliki Vrh pri Šmarju,Veliki-Vrh",45.9808,14.6039,"P","PPL","SI","",32,"","","",324,NULL,359,"Europe/Ljubljana","2014-04-25"
3187961,"Veliki Vrh","Veliki Vrh","Veliki Vrh",46.3739,16.0178,"P","PPL","SI","","O1","","","",115,NULL,344,"Europe/Ljubljana","2014-04-24"
3187962,"Veliki Vrh","Veliki Vrh","Veliki Vrh",46.3471,15.0398,"P","PPL","SI","","C7","","","",270,NULL,611,"Europe/Ljubljana","2014-04-27"
3187997,"Veliki Slatnik","Veliki Slatnik","Veliki Slatnik",45.7923,15.2262,"P","PPL","SI","","J7","","","",151,NULL,227,"Europe/Ljubljana","2014-04-26"
3188004,"Veliki Rigelj","Veliki Rigelj","Veliki Rigelj",45.7262,15.0644,"P","PPL","SI","","G6","","","",24,NULL,299,"Europe/Ljubljana","2014-04-26"
3188007,"Veliki Rakitovec","Veliki Rakitovec","Veliki Rakitovec",46.2,14.7833,"P","PPL","SI","","H6","","","",28,NULL,836,"Europe/Ljubljana","2014-04-24"
3188018,"Veliki Podlog","Veliki Podlog","Veliki Podlog",45.9,15.45,"P","PPL","SI","",54,"","","",262,NULL,155,"Europe/Ljubljana","2014-04-24"
3188025,"Veliki Otok","Veliki Otok","Otok,Ottocco,Veliki Otok",45.783,14.1991,"P","PPL","SI","",94,"","","",157,NULL,541,"Europe/Ljubljana","2014-05-01"
3188026,"Veliki Osolnik","Veliki Osolnik","Veliki Osolnik",45.8542,14.5978,"P","PPL","SI","","D8","","","",83,NULL,616,"Europe/Ljubljana","2014-04-24"
3188029,"Veliki Orehek","Veliki Orehek","Veliki Orehek",45.7742,15.2248,"P","PPL","SI","","J7","","","",95,NULL,274,"Europe/Ljubljana","2014-04-26"
3188031,"Veliki Obrež","Veliki Obrez","Veliki Obrez,Veliki Obrež",45.9,15.6667,"P","PPL","SI","","08","","","",284,NULL,141,"Europe/Ljubljana","2014-04-25"
3188032,"Veliki Nerajec","Veliki Nerajec","Veliki Nerajec",45.5117,15.1885,"P","PPL","SI","",17,"","","",74,NULL,157,"Europe/Ljubljana","2014-04-26"
3188041,"Veliki Ločnik","Veliki Locnik","Veliki Locnik,Veliki Ločnik",45.9,14.6022,"P","PPL","SI","","D8","","","",123,NULL,567,"Europe/Ljubljana","2014-04-24"
3188046,"Veliki Lipovec","Veliki Lipovec","Veliki Lipovec",45.8,15.0333,"P","PPL","SI","","N8","","","",102,NULL,471,"Europe/Ljubljana","2014-04-24"
3188048,"Veliki Lipoglav","Veliki Lipoglav","Veliki Lipoglav",45.9989,14.6511,"P","PPL","SI","",61,"","","",46,NULL,485,"Europe/Ljubljana","2014-04-24"
3188058,"Veliki Korinj","Veliki Korinj","Korinj,Veliki Korinj",45.8421,14.7695,"P","PPL","SI","",39,"","","",33,NULL,615,"Europe/Ljubljana","2014-04-26"
3188059,"Veliki Koren","Veliki Koren","Veliki Koren",45.9,15.3833,"P","PPL","SI","",54,"","","",0,NULL,175,"Europe/Ljubljana","2014-04-06"
3188063,"Veliki Kamen","Veliki Kamen","Grosser Steinbach,Kamen,Veliki Kamen",46.0375,15.5189,"P","PPL","SI","",54,"","","",227,NULL,298,"Europe/Ljubljana","2014-04-24"
3188065,"Veliki Kal","Veliki Kal","Kal,Veliki Kal",45.86,15.1117,"P","PPL","SI","","J6","","","",97,NULL,305,"Europe/Ljubljana","2014-04-26"
3188084,"Veliki Gaber","Veliki Gaber","Gaber,Veliki Gaber",45.9338,14.9071,"P","PPL","SI","","D4","","","",314,NULL,312,"Europe/Ljubljana","2014-04-26"
3188093,"Veliki Dol","Veliki Dol","Dol Grande,Vallegrande,Veliki Dol",45.7703,13.7519,"P","PPL","SI","","B7","","","",123,NULL,213,"Europe/Ljubljana","2014-04-24"
3188095,"Veliki Cirnik","Veliki Cirnik","Veliki Cirnik",45.9833,15.1333,"P","PPL","SI","","P2","","","",72,NULL,291,"Europe/Ljubljana","2014-04-24"
3188097,"Veliki Cerovec","Veliki Cerovec","Veliki Cerovec",45.7431,15.2298,"P","PPL","SI","","J7","","","",148,NULL,478,"Europe/Ljubljana","2014-04-26"
3188098,"Čentur","Centur","",45.5058,13.7722,"P","PPL","SI","",50,"","","",148,NULL,143,"Europe/Ljubljana","2014-04-27"
3188111,"Veliki Ban","Veliki Ban","Veliki Ban",45.807,15.3876,"P","PPL","SI","","B4","","","",80,NULL,738,"Europe/Ljubljana","2014-04-26"
3188114,"Velike Žablje","Velike Zablje","Sable,Velike Zablje,Velike Žablje,Veliko,Zablje",45.8667,13.8506,"P","PPL","SI","","01","","","",330,NULL,89,"Europe/Ljubljana","2014-04-25"
3188115,"Velike Vrhe","Velike Vrhe","Velike Vrhe,Veliki Vrhi",45.915,14.7656,"P","PPL","SI","",39,"","","",47,NULL,530,"Europe/Ljubljana","2014-04-24"
3188116,"Velike Vodenice","Velike Vodenice","Velike Vodenice",45.8299,15.3857,"P","PPL","SI","","O3","","","",47,NULL,335,"Europe/Ljubljana","2014-04-26"
3188123,"Velike Poljane","Velike Poljane","Velike Poljane",45.9167,15.25,"P","PPL","SI","","B8","","","",92,NULL,187,"Europe/Ljubljana","2014-04-24"
3188124,"Velike Poljane","Velike Poljane","Poljane,Velike Poljane,Veliko Poljane",45.7961,14.6828,"P","PPL","SI","","L1","","","",129,NULL,608,"Europe/Ljubljana","2014-04-24"
3188126,"Velike Lipljene","Velike Lipljene","Velike Lipljene",45.9057,14.6404,"P","PPL","SI","",32,"","","",141,NULL,511,"Europe/Ljubljana","2014-04-26"
3188127,"Velike Lese","Velike Lese","Velike Lese",45.8748,14.8084,"P","PPL","SI","",39,"","","",122,NULL,281,"Europe/Ljubljana","2014-04-26"
3188128,"Velike Lašče","Velike Lasce","Gmina Velike Lasce,Gmina Velike Lašče,Gross-Laschitz,Grosslaschitz,Großlaschitz,Opcina Velike Lasce,Općina Velike Lašče,Velike Lasce,Velike Lashche,Velike Lashhe,Velike Lašče,bellikelasyuche,Велике Лашче,Велике Лаще,ヴェリケ・ラシチェ,벨리케라슈체",45.8322,14.6364,"P","PPLA","SI","","D8","","","",729,NULL,537,"Europe/Ljubljana","2014-04-27"
3188132,"Velike Grahovše","Velike Grahovse","",46.1391,15.321,"P","PPL","SI","",57,"","","",142,NULL,584,"Europe/Ljubljana","2014-04-27"
3188134,"Velike Brusnice","Velike Brusnice","Velike Brusnice",45.8041,15.2577,"P","PPL","SI","","J7","","","",502,NULL,277,"Europe/Ljubljana","2014-04-26"
3188136,"Velike Bloke","Velike Bloke","Bloke,Oblak,Velike Bloke,Veliko Bloke",45.7844,14.4806,"P","PPL","SI","","F6","","","",210,NULL,729,"Europe/Ljubljana","2014-04-24"
3188147,"Velika Vas pri Krškem","Velika Vas pri Krskem","Velika Vas,Velika Vas pri Krskem,Velika Vas pri Krškem",45.9203,15.4597,"P","PPL","SI","",54,"","","",266,NULL,158,"Europe/Ljubljana","2014-04-25"
3188148,"Velika Vas","Velika Vas","Velika Vas",46.1,14.7333,"P","PPL","SI","",77,"","","",60,NULL,431,"Europe/Ljubljana","2014-04-24"
3188149,"Velika Varnica","Velika Varnica","Varnica,Velika Varnica",46.3,15.9333,"P","PPL","SI","","N2","","","",208,NULL,318,"Europe/Ljubljana","2014-04-24"
3188160,"Velika Strmica","Velika Strmica","Velika Strmica",45.9,15.2167,"P","PPL","SI","","O7","","","",43,NULL,387,"Europe/Ljubljana","2014-04-24"
3188161,"Velika Stara Vas","Velika Stara Vas","Velika Stara Vas",45.9792,14.6747,"P","PPL","SI","",32,"","","",137,NULL,363,"Europe/Ljubljana","2014-04-24"
3188162,"Velika Štanga","Velika Stanga","Velika Stanga,Velika Štanga",46.05,14.75,"P","PPL","SI","","L9","","","",103,NULL,607,"Europe/Ljubljana","2014-04-25"
3188166,"Velika Slevica","Velika Slevica","Velika Slevica",45.8147,14.6164,"P","PPL","SI","","D8","","","",48,NULL,600,"Europe/Ljubljana","2014-04-24"
3188177,"Velika Račna","Velika Racna","Velika Racna,Velika Račna",45.9042,14.6894,"P","PPL","SI","",32,"","","",242,NULL,329,"Europe/Ljubljana","2014-04-24"
3188179,"Velika Pristava","Velika Pristava","Prestava Grande,Velika Pristava",45.6569,14.1853,"P","PPL","SI","",91,"","","",57,NULL,450,"Europe/Ljubljana","2014-04-24"
3188181,"Velika Polana","Velika Polana","Nagypalina,Palina,Velika Polana",46.5719,16.3469,"P","PPLA","SI","","M9","","","",929,NULL,165,"Europe/Ljubljana","2014-04-27"
3188189,"Velika Pirešica","Velika Piresica","Velika Piresica,Velika Pirešica",46.2856,15.1794,"P","PPL","SI","","N5","","","",452,NULL,280,"Europe/Ljubljana","2014-04-25"
3188200,"Velika Nedelja","Velika Nedelja","Grossentag,Soseska,Velika Nedelja,Velike Nedelje",46.4178,16.1097,"P","PPL","SI","",87,"","","",305,NULL,200,"Europe/Ljubljana","2014-04-24"
3188209,"Velika Loka","Velika Loka","Velika Loka",45.9289,14.9678,"P","PPL","SI","","D4","","","",239,NULL,283,"Europe/Ljubljana","2014-04-24"
3188210,"Velika Loka","Velika Loka","Velika Loka,Veliko Loka",45.9383,14.7233,"P","PPL","SI","",32,"","","",293,NULL,333,"Europe/Ljubljana","2014-04-24"
3188213,"Velika Ligojna","Velika Ligojna","Ligojna,Velika Ligojna",45.9925,14.2928,"P","PPL","SI","","E5","","","",391,NULL,302,"Europe/Ljubljana","2014-04-24"
3188215,"Velika Lašna","Velika Lasna","Velika Lasna,Velika Lašna",46.2,14.7,"P","PPL","SI","","H6","","","",120,NULL,729,"Europe/Ljubljana","2014-04-25"
3188219,"Velika Kostrevnica","Velika Kostrevnica","Kostrevnica,Velika Kostrevnica",46.0278,14.8758,"P","PPL","SI","","L9","","","",202,NULL,300,"Europe/Ljubljana","2014-04-24"
3188233,"Velika Ilova Gora","Velika Ilova Gora","Velika Ilova Gora",45.8997,14.7358,"P","PPL","SI","",32,"","","",68,NULL,510,"Europe/Ljubljana","2014-04-24"
3188235,"Velika Hubajnica","Velika Hubajnica","Velika Hubajnica,Velika Hubanjica",45.9667,15.3,"P","PPL","SI","","B6","","","",25,NULL,446,"Europe/Ljubljana","2015-11-30"
3188250,"Velika Goba","Velika Goba","Velika Goba",46.0333,14.9667,"P","PPL","SI","","I5","","","",41,NULL,687,"Europe/Ljubljana","2014-04-24"
3188256,"Velika Dolina","Velika Dolina","Velika Dolina",45.85,15.6667,"P","PPL","SI","","08","","","",149,NULL,229,"Europe/Ljubljana","2014-04-24"
3188257,"Velika Dobrava","Velika Dobrava","Velika Dobrava",45.9575,14.7806,"P","PPL","SI","",39,"","","",131,NULL,519,"Europe/Ljubljana","2014-04-24"
3188262,"Velika Cikava","Velika Cikava","",45.8,15.2,"P","PPL","SI","","J7","","","",0,NULL,212,"Europe/Ljubljana","2008-11-25"
3188264,"Velika Bukovica","Velika Bukovica","Bucovizza Granda,Bukovica,Velika Bukovica",45.5458,14.2239,"P","PPL","SI","",38,"","","",193,NULL,481,"Europe/Ljubljana","2014-04-24"
3188269,"Velika Brda","Velika Brda","Berdo,Velika Brda,Veliko Brdo",45.7717,14.1119,"P","PPL","SI","",94,"","","",43,NULL,544,"Europe/Ljubljana","2015-11-02"
3188303,"Velesovo","Velesovo","Velesovo",46.2689,14.4512,"P","PPL","SI","",12,"","","",395,NULL,439,"Europe/Ljubljana","2014-04-26"
3188340,"Večeslavci","Veceslavci","Vasvecses,Vasvecsés,Veceslavci,Večeslavci",46.7889,16.0267,"P","PPL","SI","","A6","","","",360,NULL,262,"Europe/Ljubljana","2014-04-24"
3188342,"Vatovlje","Vatovlje","Vatovlje,Vattoglie",45.6178,14.0586,"P","PPL","SI","",19,"","","",20,NULL,508,"Europe/Ljubljana","2014-04-24"
3188352,"Vas","Vas","Vas",45.4747,14.8692,"P","PPL","SI","","H9","","","",73,NULL,271,"Europe/Ljubljana","2014-04-24"
3188358,"Varoš","Varos","Varos,Varoš",46.3268,15.6883,"P","PPL","SI","","O5","","","",100,NULL,296,"Europe/Ljubljana","2014-04-26"
3188367,"Vareje","Vareje","Varea,Vareje",45.6261,14.0361,"P","PPL","SI","",19,"","","",34,NULL,638,"Europe/Ljubljana","2014-04-24"
3188371,"Varda","Varda","Varda",46.592,15.7862,"P","PPL","SI","","P7","","","",107,NULL,310,"Europe/Ljubljana","2014-04-26"
3188388,"Vanetina","Vanetina","Vanetina",46.5701,15.9174,"P","PPL","SI","","F9","","","",54,NULL,268,"Europe/Ljubljana","2014-04-26"
3188389,"Vaneča","Vaneca","Vaneca,Vaneča,Vaslak",46.7333,16.15,"P","PPL","SI","",97,"","","",429,NULL,253,"Europe/Ljubljana","2014-04-24"
3188390,"Vanča Vas","Vanca Vas","Ivanfalva,Ivánfalva,Vanca Vas,Vanca Ves,Vanča Vas,Vanča Ves,Vauca Vas,Vauča Vas",46.6703,16.0981,"P","PPL","SI","","M6","","","",495,NULL,196,"Europe/Ljubljana","2014-04-24"
3188405,"Valica","Valica","Valica,Valiza,Valizza",45.4675,13.5739,"P","PPL","SI","SI","04","","","",0,NULL,86,"Europe/Ljubljana","2012-01-19"
3188409,"Valdoltra","Valdoltra","",45.5811,13.7303,"P","PPL","SI","","P9","","","",0,NULL,22,"Europe/Ljubljana","2016-11-23"
3188413,"Valburga","Valburga","Sveta Valpurga,Valburga",46.1667,14.4333,"P","PPL","SI","",71,"","","",540,NULL,352,"Europe/Ljubljana","2014-04-24"
3188418,"Vajgen","Vajgen","Vajgen",46.65,15.6833,"P","PPL","SI","",89,"","","",103,NULL,307,"Europe/Ljubljana","2014-04-24"
3188426,"Vače","Vace","Vace,Vače",46.12,14.8392,"P","PPL","SI","","I5","","","",361,NULL,513,"Europe/Ljubljana","2014-04-24"
3188449,"Utovlje","Utovlje","Utovlje,Uttoglie",45.7539,13.8833,"P","PPL","SI","","B7","","","",34,NULL,337,"Europe/Ljubljana","2014-04-24"
3188456,"Ustje","Ustje","Ustie,Ustje",45.8699,13.8951,"P","PPL","SI","","01","","","",377,NULL,100,"Europe/Ljubljana","2014-04-24"
3188469,"Uršna Sela","Ursna Sela","Ursna Sela,Uršna Sela,Vrsna Sela,Vršna Sela",45.7189,15.1255,"P","PPL","SI","","J7","","","",626,NULL,328,"Europe/Ljubljana","2016-02-26"
3188470,"Uršlja Gora","Urslja Gora","Crska Gora,Crška Gora,Urslja Gora,Uršlja Gora",46.5,14.9333,"P","PPL","SI","","K8","","","",27,NULL,1051,"Europe/Ljubljana","2014-04-25"
3188484,"Unec","Unec","Unec",45.8156,14.2939,"P","PPL","SI","",13,"","","",524,NULL,519,"Europe/Ljubljana","2014-04-24"
3188518,"Ulaka","Ulaka","Ulaka",45.8306,14.6178,"P","PPL","SI","","D8","","","",43,NULL,600,"Europe/Ljubljana","2014-04-24"
3188519,"Ulaka","Ulaka","Ulaka",45.7953,14.4711,"P","PPL","SI","","F6","","","",43,NULL,739,"Europe/Ljubljana","2014-04-24"
3188550,"Udje","Udje","Udje",45.9264,14.6053,"P","PPL","SI","",32,"","","",59,NULL,350,"Europe/Ljubljana","2014-04-24"
3188599,"Tušev Dol","Tusev Dol","Tusev Dol,Tušev Dol",45.5833,15.15,"P","PPL","SI","",17,"","","",76,NULL,196,"Europe/Ljubljana","2014-04-25"
3188606,"Turnišče","Turnisce","Bantornya,Bántornya,Turnisce,Turnischa,Turnišče",46.6278,16.3203,"P","PPLA","SI","","D6","","","",1509,NULL,172,"Europe/Ljubljana","2014-04-27"
3188617,"Turjanci","Turjanci","Turjanci",46.6292,16.0692,"P","PPL","SI","","A1","","","",99,NULL,200,"Europe/Ljubljana","2014-04-24"
3188618,"Turjak","Turjak","Auersperg,Turjak",45.8789,14.6153,"P","PPL","SI","","D8","","","",189,NULL,551,"Europe/Ljubljana","2014-04-24"
3188645,"Tupaliče","Tupalice","Tupalice,Tupaliče",46.2833,14.4333,"P","PPL","SI","","B2","","","",408,NULL,450,"Europe/Ljubljana","2014-04-24"
3188648,"Tunjice","Tunjice","Tunjica,Tunjice",46.2353,14.5679,"P","PPL","SI","","H6","","","",279,NULL,371,"Europe/Ljubljana","2014-04-26"
3188678,"Tublje pri Komnu","Tublje pri Komnu","Tuble di Boriano,Tublje,Tublje pri Komnu",45.7738,13.7277,"P","PPL","SI","","B7","","","",34,NULL,193,"Europe/Ljubljana","2014-04-26"
3188679,"Tublje pri Hrpeljah","Tublje pri Hrpeljah","Tubbiano,Tublje,Tublje pri Hrpeljah",45.595,13.9722,"P","PPL","SI","",35,"","","",129,NULL,504,"Europe/Ljubljana","2014-04-24"
3188683,"Tržišče","Trzisce","Trzisce,Tržišče",45.9589,15.1972,"P","PPL","SI","","B6","","","",214,NULL,279,"Europe/Ljubljana","2014-04-25"
3188684,"Trzin","Trzin","Trzin",46.1333,14.5667,"P","PPLA","SI","","M8","","","",3844,NULL,296,"Europe/Ljubljana","2014-04-27"
3188687,"Občina Tržič","Obcina Trzic","Obcina Trzic,Občina Tržič,Opstina Trzic,Opština Tržič,Trzic,Tržič",46.3842,14.3236,"A","ADM1","SI","SI","D5","","","",15207,NULL,862,"Europe/Ljubljana","2014-04-22"
3188688,"Tržič","Trzic","Neumarktl,Trsic,Tršič",46.3636,14.3105,"P","PPLA","SI","","D5","","","",3865,NULL,519,"Europe/Ljubljana","2014-04-27"
3188689,"Tržec","Trzec","Trzec,Tržec",46.3656,15.8719,"P","PPL","SI","","N2","","","",410,NULL,224,"Europe/Ljubljana","2014-04-25"
3188695,"Truške","Truske","Truscolo,Truske,Truške",45.4903,13.8222,"P","PPL","SI","",50,"","","",53,NULL,283,"Europe/Ljubljana","2014-04-25"
3188704,"Trtnik","Trtnik","Tertenico,Trtnik",46.2127,13.9553,"P","PPL","SI","","D2","","","",23,NULL,978,"Europe/Ljubljana","2014-04-26"
3188714,"Trstenik","Trstenik","Trstenik",46.6244,15.9036,"P","PPL","SI","","F4","","","",110,NULL,261,"Europe/Ljubljana","2014-04-24"
3188715,"Trstenik","Trstenik","Trstenik",46.3183,14.37,"P","PPL","SI","",52,"","","",375,NULL,511,"Europe/Ljubljana","2014-04-24"
3188723,"Trška Gora","Trska Gora","Trska Gora,Trška Gora",45.8424,15.1823,"P","PPL","SI","","J7","","","",184,NULL,337,"Europe/Ljubljana","2014-04-26"
3188732,"Trpčane","Trpcane","Terciane,Trpcane,Trpčane",45.5269,14.3169,"P","PPL","SI","",38,"","","",140,NULL,421,"Europe/Ljubljana","2014-04-24"
3188742,"Trotkova","Trotkova","Trotkova",46.5995,15.9037,"P","PPL","SI","","F4","","","",105,NULL,242,"Europe/Ljubljana","2014-04-26"
3188746,"Troščine","Troscine","Troscine,Troščine",45.9983,14.7092,"P","PPL","SI","",32,"","","",35,NULL,479,"Europe/Ljubljana","2014-04-25"
3188748,"Tropovci","Tropovci","Murafuzes,Murafüzes,Tropovci",46.6536,16.1033,"P","PPL","SI","","M6","","","",521,NULL,192,"Europe/Ljubljana","2014-04-24"
3188756,"Trojane","Trojane","Trojana,Trojane",46.1883,14.8831,"P","PPL","SI","SI",68,"","","",107,NULL,563,"Europe/Ljubljana","2014-04-24"
3188765,"Troblje","Troblje","Troblje",46.5294,15.0875,"P","PPL","SI","","C2","","","",311,NULL,423,"Europe/Ljubljana","2014-04-24"
3188767,"Trnovska Vas","Trnovska Vas","Sankt Wolfgang in Windischbueheln,Sankt Wolfgang in Windischbüheln,Trnovska Ves",46.5202,15.8866,"P","PPLA","SI","","M7","","","",367,NULL,247,"Europe/Ljubljana","2014-04-27"
3188768,"Trnovo ob Soči","Trnovo ob Soci","Ternova d'Isonzo,Ternova d’Isonzo,Trnovo,Trnovo ob Soci,Trnovo ob Soči",46.28,13.5515,"P","PPL","SI","",46,"","","",138,NULL,330,"Europe/Ljubljana","2014-04-24"
3188769,"Trnovo","Trnovo","Tarnova,Tarnova della Selva,Ternova,Trnovo,Trnovo pri Gorici",45.9742,13.7433,"P","PPL","SI","",84,"","","",359,NULL,777,"Europe/Ljubljana","2014-04-24"
3188775,"Trnovlje pri Celju","Trnovlje pri Celju","Trnovlje,Trnovlje pri Celju",46.2567,15.2953,"P","PPL","SI","",11,"","","",1234,NULL,246,"Europe/Ljubljana","2014-04-24"
3188784,"Trnovec pri Dramljah","Trnovec pri Dramljah","Trnovec,Trnovec pri Dramljah",46.2544,15.39,"P","PPL","SI","","L7","","","",145,NULL,279,"Europe/Ljubljana","2014-04-24"
3188787,"Trnovec pri Slovenski Bistrici","Trnovec pri Slovenski Bistrici","",46.3564,15.6517,"P","PPL","SI","","L8","","","",76,NULL,254,"Europe/Ljubljana","2014-04-25"
3188788,"Trnovec","Trnovec","Trnovec",46.1,14.35,"P","PPL","SI","",71,"","","",152,NULL,549,"Europe/Ljubljana","2014-04-24"
3188789,"Trnovci","Trnovci","Trnovci",46.5022,16.0422,"P","PPL","SI","","P8","","","",152,NULL,240,"Europe/Ljubljana","2014-04-24"
3188799,"Trnje","Trnje","Trnje,Tuskeszer,Tüskeszer",46.5875,16.3083,"P","PPL","SI","",15,"","","",564,NULL,167,"Europe/Ljubljana","2014-04-24"
3188800,"Trnje","Trnje","Tergne,Trnje",45.719,14.2888,"P","PPL","SI","",91,"","","",281,NULL,752,"Europe/Ljubljana","2014-04-27"
3188826,"Trimlini","Trimlini","Harmasmalom,Hármasmalom,Trije Mlini,Trimlini",46.5444,16.4586,"P","PPL","SI","","I4","","","",305,NULL,159,"Europe/Ljubljana","2014-04-24"
3188838,"Tribuče","Tribuce","Tribuce,Tribuče",45.55,15.25,"P","PPL","SI","",17,"","","",328,NULL,200,"Europe/Ljubljana","2014-04-24"
3188847,"Trgovišče","Trgovisce","Trgovic,Trgovisce,Trgovič,Trgovišče",46.4161,16.0961,"P","PPL","SI","",87,"","","",225,NULL,196,"Europe/Ljubljana","2014-04-25"
3188874,"Trenta","Trenta","Trenta",46.3833,13.75,"P","PPL","SI","","06","","","",123,NULL,667,"Europe/Ljubljana","2014-04-24"
3188878,"Tremerje","Tremerje","Tremerje",46.1982,15.2254,"P","PPL","SI","",11,"","","",64,NULL,350,"Europe/Ljubljana","2014-04-26"
3188885,"Trebnje","Trebnje","Comuna Trebnje,Gmina Trebnje,Municipality of Trebnje,Obcina Trebnje,Občina Trebnje,Opcina Trebnje,Opshtina Trebne,Opstina Trebnje,Općina Trebnje,Opština Trebnje,Trebne,Trebnje,Општина Требње,Требнє",45.9109,14.9877,"A","ADM1","SI","","D4","","","",14620,NULL,289,"Europe/Ljubljana","2014-07-29"
3188886,"Trebnje","Trebnje","Praetorium Latobicorum,Trebne,Trebnje,te lei bu nie,teulebeune,torebunye,trbnjh,trbnyh,Требнє,Требње,تربنجه,تربنیه,トレブニェ,特雷布涅,트레브네",45.9042,15.0217,"P","PPLA","SI","","D4","","","",3477,NULL,281,"Europe/Ljubljana","2014-04-27"
3188890,"Trebižani","Trebizani","Trebizani,Trebižani,Trevisani",45.8144,13.9067,"P","PPL","SI","","E1","","","",12,NULL,188,"Europe/Ljubljana","2014-04-25"
3188899,"Trebeše","Trebese","Trebese,Trebesse,Trebeše",45.4722,13.8589,"P","PPL","SI","",50,"","","",60,NULL,328,"Europe/Ljubljana","2014-04-25"
3188901,"Trebelno","Trebelno","Trebelno",45.9167,15.15,"P","PPL","SI","","O7","","","",99,NULL,511,"Europe/Ljubljana","2014-04-24"
3188903,"Trebče","Trebce","Trebce,Trebče",46.0411,15.6281,"P","PPL","SI","","F5","","","",251,NULL,356,"Europe/Ljubljana","2014-04-24"
3188904,"Trebanjski Vrh","Trebanjski Vrh","Trebanjski Vrh",45.9492,14.9869,"P","PPL","SI","","D4","","","",60,NULL,368,"Europe/Ljubljana","2014-04-24"
3188906,"Trdobojci","Trdobojci","Trdobojci",46.3167,15.9167,"P","PPL","SI","","N2","","","",92,NULL,331,"Europe/Ljubljana","2014-04-24"
3188907,"Trdkova","Trdkova","Magasfok,Trdkova,Trdkovo",46.8533,16.1277,"P","PPL","SI","","I2","","","",178,NULL,352,"Europe/Ljubljana","2015-07-19"
3188914,"Trbovlje","Trbovlje","Obcina Trbovlje,Občina Trbovlje,Opstina Trbovlje,Opština Trbovlje,Trbovlje",46.1417,15.0422,"A","ADM1","SI","","D3","","","",17194,NULL,310,"Europe/Ljubljana","2014-04-22"
3188915,"Trbovlje","Trbovlje","Obcina Trbovlje,Občina Trbovlje,Trbovlje,torubovurye,トルボヴリェ",46.155,15.0533,"P","PPLA","SI","","D3","","","",15163,NULL,285,"Europe/Ljubljana","2014-04-27"
3188920,"Trbonje","Trbonje","Trbonje",46.6028,15.1075,"P","PPL","SI","",25,"","","",235,NULL,382,"Europe/Ljubljana","2014-04-24"
3188921,"Trboje","Trboje","Trboje",46.2,14.4167,"P","PPL","SI","","B2","","","",662,NULL,359,"Europe/Ljubljana","2014-04-24"
3188923,"Travnik","Travnik","Travnik",45.6841,14.6199,"P","PPL","SI","",66,"","","",294,NULL,992,"Europe/Ljubljana","2014-04-27"
3188927,"Trava","Trava","Trava",45.6039,14.6722,"P","PPL","SI","",66,"","","",28,NULL,766,"Europe/Ljubljana","2014-04-24"
3188929,"Trate","Trate","Trate",46.6931,15.7864,"P","PPLL","SI","","B3","","","",287,NULL,374,"Europe/Ljubljana","2014-04-24"
3188930,"Trata pri Velesovem","Trata pri Velesovem","Trata,Trata pri Velesovem",46.265,14.4593,"P","PPL","SI","",12,"","","",122,NULL,416,"Europe/Ljubljana","2014-04-26"
3188932,"Trata","Trata","Trata",46.1773,14.3457,"P","PPL","SI","","B9","","","",206,NULL,359,"Europe/Ljubljana","2014-04-26"
3188933,"Trata","Trata","",46.1,14.1333,"P","PPL","SI","",27,"","","",0,NULL,442,"Europe/Ljubljana","2008-11-06"
3188953,"Toško Čelo","Tosko Celo","Tosko Celo,Toško Čelo",46.0833,14.4167,"P","PPL","SI","",61,"","","",18,NULL,547,"Europe/Ljubljana","2014-04-25"
3188971,"Topolšica","Topolsica","Topolschitz,Topolscica,Topolščica",46.4003,15.0216,"P","PPL","SI","","C7","","","",1294,NULL,371,"Europe/Ljubljana","2014-04-27"
3188972,"Topol pri Medvodah","Topol pri Medvodah","Topol,Topol pri Medvodah",46.1,14.3833,"P","PPL","SI","",71,"","","",160,NULL,701,"Europe/Ljubljana","2014-04-24"
3188973,"Topol pri Begunjah","Topol pri Begunjah","Topol,Topol pri Begunjah",45.8082,14.4066,"P","PPL","SI","",13,"","","",72,NULL,617,"Europe/Ljubljana","2014-04-26"
3188976,"Topolovec","Topolovec","Topolovac,Topolovec,Topotovac,Toppolo in Belvedere",45.4656,13.8139,"P","PPL","SI","",50,"","","",53,NULL,336,"Europe/Ljubljana","2014-04-24"
3188977,"Topolovci","Topolovci","Jegenyes,Jegenyés,Topolovci",46.7333,16.05,"P","PPL","SI","","F8","","","",64,NULL,221,"Europe/Ljubljana","2014-04-24"
3188984,"Topole","Topole","Topolje",46.1783,14.5565,"P","PPL","SI","",72,"","","",209,NULL,327,"Europe/Ljubljana","2014-04-24"
3188985,"Topolc","Topolc","Topolc,Topolec,Topolza",45.5836,14.2167,"P","PPL","SI","",38,"","","",339,NULL,411,"Europe/Ljubljana","2015-10-22"
3188987,"Topol","Topol","Topol",45.7556,14.5317,"P","PPL","SI","","F6","","","",59,NULL,723,"Europe/Ljubljana","2014-04-24"
3188991,"Topla Reber","Topla Reber","Dolnja Topla Reber,Topla Reber",45.7547,14.9706,"P","PPL","SI","","H7","","","",0,NULL,850,"Europe/Ljubljana","2014-04-25"
3188993,"Topla","Topla","Topla",46.4833,14.7667,"P","PPL","SI","",16,"","","",33,NULL,1037,"Europe/Ljubljana","2014-04-24"
3189003,"Tomišelj","Tomiselj","Tomiselj,Tomišelj",45.9642,14.4819,"P","PPL","SI","",37,"","","",299,NULL,298,"Europe/Ljubljana","2014-04-25"
3189005,"Tominje","Tominje","Tomigna,Tominje",45.5611,14.175,"P","PPL","SI","",38,"","","",107,NULL,563,"Europe/Ljubljana","2014-04-24"
3189014,"Sveti Tomaž","Sveti Tomaz","Kostanj,Sveti Tomaz,Sveti Tomaz pri Ormozu,Sveti Tomaž,Sveti Tomaž pri Ormožu,Tomaz,Tomaz pri Ormozu,Tomaž,Tomaž pri Ormožu",46.4842,16.0836,"P","PPLA","SI","","P8","","","",284,NULL,274,"Europe/Ljubljana","2014-04-27"
3189024,"Tomaj","Tomaj","Tomadio,Tomaj,Tomádio",45.7558,13.8531,"P","PPL","SI","","B7","","","",335,NULL,357,"Europe/Ljubljana","2014-04-24"
3189025,"Tolsti Vrh pri Ravnah na Koroškem","Tolsti Vrh pri Ravnah na Koroskem","Tolsti Vrh,Tolsti Vrh pri Ravnah na Koroskem,Tolsti Vrh pri Ravnah na Koroškem",46.5667,14.95,"P","PPL","SI","","K8","","","",0,NULL,512,"Europe/Ljubljana","2012-01-19"
3189026,"Tolsti Vrh pri Mislinji","Tolsti Vrh pri Mislinji","Tolsti Vrh,Tolsti Vrh pri Mislinj",46.4333,15.2167,"P","PPL","SI","",76,"","","",162,NULL,731,"Europe/Ljubljana","2014-04-25"
3189027,"Tolsti Vrh","Tolsti Vrh","Tolsti Vrh",46.3167,15.4333,"P","PPL","SI","","C4","","","",105,NULL,562,"Europe/Ljubljana","2014-04-24"
3189028,"Tolsti Vrh","Tolsti Vrh","Tolsti Vrh",45.8071,15.2913,"P","PPL","SI","","B4","","","",121,NULL,318,"Europe/Ljubljana","2014-04-26"
3189035,"Tolminski Lom","Tolminski Lom","Lom,Lom di Tolmimo,Tolminski Lom",46.1286,13.7472,"P","PPL","SI","","D2","","","",68,NULL,618,"Europe/Ljubljana","2014-04-24"
3189036,"Tolminske Ravne","Tolminske Ravne","Raume di Piedimeize,Raune di Piedimelze,Ravne,Tolminske Ravne",46.2363,13.7791,"P","PPL","SI","","D2","","","",11,NULL,1120,"Europe/Ljubljana","2014-04-27"
3189037,"Občina Tolmin","Obcina Tolmin","Obcina Tolmin,Občina Tolmin,Opstina Tolmin,Opština Tolmin,Tolmin",46.1795,13.7116,"A","ADM1","SI","SI","D2","","","",11634,201,190,"Europe/Ljubljana","2014-04-22"
3189038,"Tolmin","Tolmin","Obcina Tolmin,Občina Tolmin,Talmina,Tolmin,Tolmino,torumin,Толмин,トールミン",46.183,13.7332,"P","PPLA","SI","","D2","","","",3534,201,201,"Europe/Ljubljana","2014-04-27"
3189049,"Todraž","Todraz","Todraz,Todraž",46.0833,14.1667,"P","PPL","SI","",27,"","","",10,NULL,577,"Europe/Ljubljana","2014-04-25"
3189074,"Velenje","Velenje","Mestna Obcina Velenje,Mestna Občina Velenje,Opstina Titovo Velenje,Opstina Velenje,Opština Titovo Velenje,Opština Velenje,Velenje",46.3667,15.1333,"A","ADM1","SI","","D7","","","",32836,NULL,446,"Europe/Ljubljana","2014-04-22"
3189075,"Velenje","Velenje","Belenie,Mestna obcina Velenje,Mestna občina Velenje,Titovo Velenje,Velen'e,Velenje,Wollan,Wöllan,bellenye,vu~erenie,Βέλενιε,Веленье,ヴェレニエ,벨레녜",46.3592,15.1103,"P","PPLA","SI","","D7","","","",25456,NULL,391,"Europe/Ljubljana","2014-04-27"
3189083,"Tisovec","Tisovec","Tisovec",45.8217,14.7719,"P","PPL","SI","",20,"","","",35,NULL,545,"Europe/Ljubljana","2014-04-24"
3189098,"Tišina","Tisina","Csendlak,Tisina,Tišina",46.6581,16.0917,"P","PPLA","SI","","M6","","","",404,NULL,192,"Europe/Ljubljana","2014-04-27"
3189104,"Tirosek","Tirosek","Nova Stifta,Nova Štifta,Tirosek",46.2667,14.7333,"P","PPL","SI","",30,"","","",0,NULL,813,"Europe/Ljubljana","2012-01-19"
3189105,"Tirna","Tirna","Tirna",46.1,14.9,"P","PPL","SI","","E7","","","",167,NULL,544,"Europe/Ljubljana","2014-04-24"
3189106,"Tinjska Gora","Tinjska Gora","Tinjska Gora",46.4,15.5,"P","PPL","SI","","L8","","","",277,NULL,402,"Europe/Ljubljana","2014-04-24"
3189107,"Tinjan","Tinjan","Antignano,Antignano d'Istria,Antignano d’Istria,Antinjan,Tinjan",45.5622,13.835,"P","PPL","SI","",50,"","","",178,NULL,337,"Europe/Ljubljana","2014-07-09"
3189129,"Tihaboj","Tihaboj","Tihaboj,Tinaboj",45.9922,15.0106,"P","PPL","SI","","I5","","","",95,NULL,361,"Europe/Ljubljana","2014-04-24"
3189142,"Tešova","Tesova","Tesova,Tešova",46.25,14.95,"P","PPL","SI","","N4","","","",96,NULL,424,"Europe/Ljubljana","2014-04-25"
3189145,"Tešanovci","Tesanovci","Mezovar,Mezővár,Tesanovci,Tešanovci",46.6825,16.2469,"P","PPL","SI","",78,"","","",371,NULL,184,"Europe/Ljubljana","2014-04-25"
3189148,"Terbegovci","Terbegovci","Terbegovci",46.5464,16.0198,"P","PPL","SI","","D1","","","",122,NULL,218,"Europe/Ljubljana","2014-04-26"
3189154,"Tepanje","Tepanje","Tepanje",46.3478,15.4761,"P","PPL","SI","","C4","","","",521,NULL,296,"Europe/Ljubljana","2014-04-24"
3189162,"Tenetiše","Tenetise","Tenetise,Tenetiše",46.2981,14.3506,"P","PPL","SI","",52,"","","",397,NULL,428,"Europe/Ljubljana","2014-04-25"
3189163,"Temnica","Temnica","Temenica,Temenizza,Temnica",45.8467,13.6775,"P","PPL","SI","","J5","","","",153,NULL,400,"Europe/Ljubljana","2014-04-24"
3189164,"Temljine","Temljine","Temljina,Temljine",46.1711,13.8536,"P","PPL","SI","","D2","","","",41,NULL,1161,"Europe/Ljubljana","2014-04-24"
3189167,"Temenica","Temenica","Temenica",45.9719,14.8886,"P","PPL","SI","",39,"","","",177,NULL,376,"Europe/Ljubljana","2014-04-26"
3189169,"Telče","Telce","Telce,Telče",45.9574,15.2611,"P","PPL","SI","","B6","","","",77,NULL,481,"Europe/Ljubljana","2014-04-26"
3189176,"Tekačevo","Tekacevo","Tekacevo,Tekačevo",46.2398,15.61,"P","PPL","SI","","A7","","","",220,NULL,267,"Europe/Ljubljana","2014-04-26"
3189178,"Teharje","Teharje","Teharje",46.2303,15.3022,"P","PPL","SI","",11,"","","",287,NULL,255,"Europe/Ljubljana","2014-04-24"
3189188,"Tatre","Tatre","Tatre",45.5986,14.0878,"P","PPL","SI","",35,"","","",47,NULL,738,"Europe/Ljubljana","2014-04-24"
3189193,"Tatinec","Tatinec","Tatinec",46.2833,14.3667,"P","PPL","SI","",52,"","","",64,NULL,419,"Europe/Ljubljana","2014-04-24"
3189211,"Tanča Gora","Tanca Gora","Tanca Gora,Tanča Gora",45.5333,15.15,"P","PPL","SI","",17,"","","",207,NULL,240,"Europe/Ljubljana","2014-04-24"
3189225,"Tacen","Tacen","Tacen",46.1206,14.4656,"P","PPL","SI","",61,"","","",0,NULL,312,"Europe/Ljubljana","2016-03-10"
3189227,"Tabor","Tabor","Tabor",46.2361,15.0183,"P","PPLA","SI","","M5","","","",406,NULL,320,"Europe/Ljubljana","2014-04-27"
3189228,"Tabor","Tabor","Tabor",45.7689,13.9581,"P","PPL","SI","","B7","","","",3,NULL,589,"Europe/Ljubljana","2014-04-24"
3189241,"Svino","Svino","Svino,Villa Svina",46.2395,13.5663,"P","PPL","SI","",46,"","","",104,NULL,289,"Europe/Ljubljana","2017-03-18"
3189264,"Svibno","Svibno","Svibno",46.0656,15.0972,"P","PPL","SI","",99,"","","",163,NULL,565,"Europe/Ljubljana","2014-04-24"
3189274,"Sveto","Sveto","Sutta,Sveto",45.8272,13.7303,"P","PPL","SI","",49,"","","",204,NULL,322,"Europe/Ljubljana","2014-04-24"
3189275,"Svetli Potok","Svetli Potok","Svetli Potok",45.5667,15.0167,"P","PPL","SI","","H7","","","",0,NULL,720,"Europe/Ljubljana","2013-04-04"
3189284,"Sv. Primož na Pohorju","Sv. Primoz na Pohorju","Primoz,Primož,Sveti Primoz,Sveti Primoz na Pohorju,Sveti Primož,Sveti Primož na Pohorju",46.5497,15.1695,"P","PPLL","SI","","C2","","","",343,NULL,701,"Europe/Ljubljana","2014-04-27"
3189305,"Svetina","Svetina","Svetina",46.1875,15.3033,"P","PPL","SI","","C9","","","",122,NULL,680,"Europe/Ljubljana","2014-04-24"
3189319,"Sv. Lenart","Sv. Lenart","Lenart nad Luso,Lenart nad Lušo,Sveti Lenart",46.1833,14.2,"P","PPL","SI","","B9","","","",118,NULL,577,"Europe/Ljubljana","2014-04-25"
3189332,"Šentjungert","Sentjungert","Sent Jungerta,Sveti Jungert,Šent Jungerta",46.2932,15.2237,"P","PPL","SI","","N5","","","",148,NULL,362,"Europe/Ljubljana","2014-04-26"
3189336,"Sveti Jakob ob Savi","Sveti Jakob ob Savi","Sveti Jakob,Sveti Jakob ob Savi",46.0833,14.5833,"P","PPL","SI","",61,"","","",0,NULL,276,"Europe/Ljubljana","2012-01-19"
3189349,"Skorno pri Šoštanju","Skorno pri Sostanju","Sent Florijan,Sveti Florijan,Sveti Florijan pri Sostanju,Sveti Florijan pri Šoštanju,Šent Florijan",46.3773,15.0108,"P","PPL","SI","","C7","","","",383,NULL,573,"Europe/Ljubljana","2014-04-27"
3189355,"Sveti Duh","Sveti Duh","",46.55,16.0333,"P","PPL","SI","","D1","","","",0,NULL,251,"Europe/Ljubljana","2012-02-02"
3189356,"Sveti Duh","Sveti Duh","",46.4667,15.0333,"P","PPL","SI","","C2","","","",0,NULL,719,"Europe/Ljubljana","2008-11-25"
3189357,"Sv. Duh","Sv. Duh","Sveti Duh",46.1833,14.3333,"P","PPL","SI","","B9","","","",1066,NULL,361,"Europe/Ljubljana","2014-04-25"
3189360,"Sv. Danijel","Sv. Danijel","Sveti Danijel",46.5833,15.0833,"P","PPL","SI","",25,"","","",482,NULL,553,"Europe/Ljubljana","2014-04-25"
3189366,"Sv. Boštjan","Sv. Bostjan","Sveti Bostjan,Sveti Boštjan",46.6033,15.0564,"P","PPL","SI","",25,"","","",94,NULL,364,"Europe/Ljubljana","2014-04-25"
3189368,"Sv. Anton","Sv. Anton","San Antonio di Capodistria,Sant'Antonio,Sant’Antonio,Sveti Anton",45.5258,13.8319,"P","PPL","SI","",50,"","","",1736,NULL,187,"Europe/Ljubljana","2014-04-25"
3189402,"Sv. Barbara","Sv. Barbara","Sveta Barbara",46.1197,14.3221,"P","PPL","SI","",71,"","","",139,NULL,613,"Europe/Ljubljana","2014-04-26"
3189403,"Sv. Ana v Slov. Goricah","Sv. Ana v Slov. Goricah","Sveta Ana,Sveta Ana v Slovenskih Goricah",46.6492,15.8442,"P","PPLA","SI","","M3","","","",155,NULL,349,"Europe/Ljubljana","2014-04-27"
3189405,"Svečina","Svecina","Svecina,Svečina",46.6689,15.5886,"P","PPLL","SI","",55,"","","",166,NULL,306,"Europe/Ljubljana","2014-04-24"
3189406,"Spodnja Sveča","Spodnja Sveca","",46.322,15.718,"P","PPL","SI","","J1","","","",53,NULL,290,"Europe/Ljubljana","2014-04-26"
3189409,"Sužid","Suzid","Susida,Suzid,Sužid",46.2419,13.5515,"P","PPL","SI","",46,"","","",129,NULL,252,"Europe/Ljubljana","2017-03-18"
3189455,"Sušje","Susje","Susje,Sušje",45.7572,14.6861,"P","PPL","SI","","L1","","","",118,NULL,524,"Europe/Ljubljana","2014-04-25"
3189470,"Sušak","Susak","Susak,Sussa,Sušak",45.4906,14.3297,"P","PPL","SI","",38,"","","",92,NULL,608,"Europe/Ljubljana","2014-04-25"
3189526,"Šulinci","Sulinci","Sandorvolgy,Sulinci,Sándorvölgy,Šulinci",46.83,16.1967,"P","PPL","SI","",31,"","","",175,NULL,310,"Europe/Ljubljana","2014-04-25"
3189535,"Šujica","Sujica","Sujica,Šujica",46.0667,14.4167,"P","PPL","SI","","G4","","","",434,NULL,318,"Europe/Ljubljana","2014-04-25"
3189541,"Suhorje","Suhorje","Sucoria,Suhorje",45.638,14.1052,"P","PPL","SI","",91,"","","",61,NULL,517,"Europe/Ljubljana","2014-04-24"
3189550,"Št. Janž pri Radljah","St. Janz pri Radljah","Sent Janz,Suhi Vrh,Suhi Vrh pri Radljah,Šent Janz",46.6167,15.25,"P","PPL","SI","","A2","","","",274,NULL,437,"Europe/Ljubljana","2014-04-25"
3189551,"Suhi Vrh","Suhi Vrh","Suhi Vrh",46.5833,14.9,"P","PPL","SI","","K6","","","",87,NULL,915,"Europe/Ljubljana","2014-04-24"
3189553,"Suhi Potok","Suhi Potok","Suha Vas,Suhi Potok",45.5853,14.9658,"P","PPL","SI","","H7","","","",0,NULL,555,"Europe/Ljubljana","2015-11-16"
3189560,"Suha pri Predosljah","Suha pri Predosljah","Suha",46.2732,14.3991,"P","PPL","SI","SI",52,"","","",237,NULL,434,"Europe/Ljubljana","2014-04-24"
3189567,"Suhadole","Suhadole","Suhadole",46.1833,14.55,"P","PPL","SI","","H8","","","",770,NULL,325,"Europe/Ljubljana","2014-04-24"
3189627,"Studor v Bohinju","Studor v Bohinju","Studor,Studor v Bohinju",46.2939,13.8975,"P","PPL","SI","","04","","","",117,NULL,792,"Europe/Ljubljana","2014-04-24"
3189628,"Studeno","Studeno","Studeno",45.8231,14.1772,"P","PPL","SI","",94,"","","",298,NULL,570,"Europe/Ljubljana","2014-04-24"
3189630,"Studenice","Studenice","Studenice,Studenitz",46.3028,15.6136,"P","PPL","SI","","O8","","","",145,NULL,252,"Europe/Ljubljana","2014-04-24"
3189631,"Studenec","Studenec","Studenec",46.0667,14.5833,"P","PPL","SI","",61,"","","",0,NULL,284,"Europe/Ljubljana","2014-04-06"
3189632,"Studenec","Studenec","Studenec",45.9667,15.35,"P","PPL","SI","","B6","","","",172,NULL,386,"Europe/Ljubljana","2014-04-24"
3189633,"Studenec","Studenec","Studenec,Studenza",45.7664,14.1486,"P","PPL","SI","",94,"","","",73,NULL,555,"Europe/Ljubljana","2014-04-24"
3189634,"Studenčice","Studencice","Studencice,Studenčice",46.3763,14.1563,"P","PPL","SI","","A3","","","",99,NULL,517,"Europe/Ljubljana","2014-04-26"
3189635,"Studenčice","Studencice","Studencice,Studenčice",46.1253,14.3712,"P","PPL","SI","",71,"","","",150,NULL,566,"Europe/Ljubljana","2014-04-26"
3189644,"Studena Gora","Studena Gora","Studena Gora,Studena in Monte",45.5194,14.2014,"P","PPL","SI","",38,"","","",33,NULL,552,"Europe/Ljubljana","2014-04-24"
3189661,"Stržišče","Strzisce","Strzisce,Stržišče",46.2183,13.9178,"P","PPL","SI","","D2","","","",45,NULL,1072,"Europe/Ljubljana","2014-04-26"
3189668,"Strunjan","Strunjan","Madonna di Strugnano,Strugnano,Strunjan",45.525,13.6056,"P","PPL","SI","","J9","","","",576,NULL,6,"Europe/Ljubljana","2014-04-24"
3189671,"Strukovci","Strukovci","Strukovci",46.7167,16.0703,"P","PPL","SI","",97,"","","",164,NULL,212,"Europe/Ljubljana","2014-04-24"
3189672,"Štrukljeva Vas","Strukljeva Vas","Strukljeva Vas,Štrukljeva Vas",45.8301,14.4715,"P","PPL","SI","",13,"","","",22,NULL,684,"Europe/Ljubljana","2014-04-25"
3189689,"Strojna","Strojna","Strojna",46.5986,14.9164,"P","PPL","SI","","K8","","","",111,NULL,923,"Europe/Ljubljana","2014-04-24"
3189691,"Stročja Vas","Strocja Vas","Strocja Vas,Strocja Ves,Stročja Vas,Stročja Ves",46.5125,16.2239,"P","PPL","SI","","I6","","","",492,NULL,173,"Europe/Ljubljana","2014-04-24"
3189697,"Strmica","Strmica","Strmica",46.2283,14.2711,"P","PPL","SI","",52,"","","",66,NULL,539,"Europe/Ljubljana","2014-04-26"
3189698,"Strmca","Strmca","Stermizza Mater Dei,Strmica",45.8317,14.1994,"P","PPL","SI","",94,"","","",83,NULL,646,"Europe/Ljubljana","2014-04-27"
3189706,"Strmec pri Leskovcu","Strmec pri Leskovcu","Strmec,Strmec pri Leskovcu",46.3386,15.9217,"P","PPL","SI","","K1","","","",77,NULL,279,"Europe/Ljubljana","2014-04-26"
3189708,"Strmec na Predelu","Strmec na Predelu","Bretto di Sopra,Strmec,Strmec na Predelu",46.4165,13.6098,"P","PPL","SI","","06","","","",16,NULL,988,"Europe/Ljubljana","2014-04-24"
3189710,"Strmec","Strmec","Strmce,Strmec",46.4,14.7667,"P","PPL","SI","","I9","","","",128,NULL,1254,"Europe/Ljubljana","2014-04-24"
3189711,"Strmec","Strmec","Strmec,Strmica",45.9082,14.0363,"P","PPL","SI","",36,"","","",29,NULL,1050,"Europe/Ljubljana","2014-04-26"
3189722,"Štrit","Strit","Strit,Štrit",45.9167,15.3333,"P","PPL","SI","","B8","","","",81,NULL,171,"Europe/Ljubljana","2014-04-25"
3189726,"Štrihovec","Strihovec","Strihovec,Štrihovec",46.6667,15.6667,"P","PPL","SI","","B3","","","",236,NULL,298,"Europe/Ljubljana","2014-04-25"
3189737,"Štrekljevec","Strekljevec","Strekljevac,Strekljevec,Štrekljevac,Štrekljevec",45.6725,15.2153,"P","PPL","SI","","B1","","","",122,NULL,276,"Europe/Ljubljana","2014-04-25"
3189738,"Strehovci","Strehovci","Orszentvid,Strehovci,Őrszentvid",46.6594,16.3256,"P","PPL","SI","","G5","","","",235,NULL,172,"Europe/Ljubljana","2014-04-24"
3189754,"Stražgonjca","Strazgonjca","Strazgonjca,Strazgonjci,Stražgonjca,Stražgonjci,Strgojnce",46.4,15.6833,"P","PPL","SI","","L8","","","",193,NULL,245,"Europe/Ljubljana","2014-04-25"
3189759,"Straže","Straze","Straze,Straže",46.5112,15.8363,"P","PPL","SI","","I3","","","",97,NULL,320,"Europe/Ljubljana","2014-04-26"
3189765,"Straža pri Raki","Straza pri Raki","Straza,Straza pri Raki,Straža,Straža pri Raki",45.9216,15.4122,"P","PPL","SI","",54,"","","",167,NULL,220,"Europe/Ljubljana","2014-04-26"
3189774,"Stranje","Stranje","Stranje",46.0528,15.4166,"P","PPL","SI","",54,"","","",103,NULL,717,"Europe/Ljubljana","2014-04-27"
3189776,"Stranice","Stranice","Stranica,Stranice",46.3636,15.3653,"P","PPL","SI","","F3","","","",192,NULL,452,"Europe/Ljubljana","2014-04-24"
3189777,"Strane","Strane","Strane,Stranje",45.7858,14.0875,"P","PPL","SI","",94,"","","",59,NULL,656,"Europe/Ljubljana","2014-04-24"
3189783,"Strahomer","Strahomer","Strahomer",45.9442,14.4894,"P","PPL","SI","",37,"","","",156,NULL,310,"Europe/Ljubljana","2014-04-24"
3189785,"Strahinj","Strahinj","Strahinj",46.2833,14.3167,"P","PPL","SI","",82,"","","",765,NULL,417,"Europe/Ljubljana","2014-04-24"
3189789,"Stožice","Stozice","Stozice,Stožice",46.0833,14.5167,"P","PPL","SI","",61,"","","",0,NULL,299,"Europe/Ljubljana","2016-03-10"
3189797,"Štorje","Storje","Storie,Storje,Štorje",45.7386,13.9292,"P","PPL","SI","","B7","","","",325,NULL,352,"Europe/Ljubljana","2014-04-25"
3189798,"Štore","Store","Obcina Store,Občina Štore,Store,shutore,Štore,シュトレ",46.2208,15.3139,"P","PPLA","SI","","C9","","","",1937,NULL,273,"Europe/Ljubljana","2014-04-27"
3189799,"Stopnik","Stopnik","Stopnik",46.2667,14.9833,"P","PPL","SI","","N4","","","",194,NULL,444,"Europe/Ljubljana","2014-04-24"
3189800,"Stopnik","Stopnik","Stopnik",46.0878,13.8975,"P","PPL","SI","","D2","","","",83,NULL,360,"Europe/Ljubljana","2014-04-24"
3189801,"Stoperce","Stoperce","Stoperce",46.29,15.7167,"P","PPL","SI","","J1","","","",213,NULL,290,"Europe/Ljubljana","2014-04-24"
3189802,"Stope","Stope","Stope",45.8386,14.6028,"P","PPL","SI","","D8","","","",43,NULL,566,"Europe/Ljubljana","2014-04-24"
3189803,"Stopce","Stopce","Stopice",46.1357,15.2631,"P","PPL","SI","",57,"","","",36,NULL,324,"Europe/Ljubljana","2014-04-24"
3189814,"Stomaž","Stomaz","San Tommaso,Stomaz,Stomaž,Sveti Tomaz,Sveti Tomaž",45.9058,13.8503,"P","PPL","SI","","01","","","",285,NULL,387,"Europe/Ljubljana","2014-04-25"
3189828,"Stojnci","Stojnci","Stojnci",46.3811,15.9828,"P","PPL","SI","","J3","","","",869,NULL,210,"Europe/Ljubljana","2014-04-27"
3189839,"Stogovci","Stogovci","Stogovci",46.6969,15.8461,"P","PPL","SI","","N9","","","",143,NULL,226,"Europe/Ljubljana","2014-04-24"
3189849,"Štjak","Stjak","San Giacomo in Colle,Stiak,Stijak,Stjak,Štijak,Štjak",45.7956,13.9075,"P","PPL","SI","","B7","","","",59,NULL,498,"Europe/Ljubljana","2014-04-25"
3189862,"Stiška Vas","Stiska Vas","Stiska Vas,Stiška Vas",46.2786,14.5107,"P","PPL","SI","",12,"","","",100,NULL,875,"Europe/Ljubljana","2014-04-26"
3189887,"Stična","Sticna","Sittich,Sticna,Stična",45.9606,14.8103,"P","PPL","SI","",39,"","","",799,NULL,421,"Europe/Ljubljana","2014-04-24"
3189895,"Stehanja Vas","Stehanja Vas","Stehanja Vas",45.9152,14.9224,"P","PPL","SI","","D4","","","",49,NULL,429,"Europe/Ljubljana","2014-04-25"
3189898,"Štefanja Gora","Stefanja Gora","Stefanja Gora,Štefanja Gora",46.2881,14.4844,"P","PPL","SI","",12,"","","",92,NULL,718,"Europe/Ljubljana","2014-04-25"
3189910,"Stavešinci","Stavesinci","Stavesinci,Stavešinci",46.6056,15.983,"P","PPL","SI","",29,"","","",80,NULL,209,"Europe/Ljubljana","2014-04-26"
3189917,"Starše","Starse","Sankt Johann an Drau-Felde,Sent Janz,Starse,Starše,Sveti Janez na Dravskom Polju,Šent Janž",46.4658,15.7672,"P","PPLA","SI","","C8","","","",803,NULL,240,"Europe/Ljubljana","2014-04-27"
3189922,"Starošince","Starosince","Starosince,Starosinci,Starošince,Starošinci",46.4236,15.7297,"P","PPL","SI","",45,"","","",225,NULL,247,"Europe/Ljubljana","2014-04-25"
3189924,"Staro Selo","Staro Selo","Sella di Caporetto,Staro Selo",46.2468,13.5316,"P","PPL","SI","",46,"","","",142,NULL,257,"Europe/Ljubljana","2017-03-18"
3189933,"Staro Brezje","Staro Brezje","Staro Brezje",45.6008,14.9958,"P","PPL","SI","","H7","","","",4,NULL,822,"Europe/Ljubljana","2014-04-24"
3189934,"Škocjan","Skocjan","Skocjan,Staro Apno,Staro Apno-Skocjan,Staro Apno-Škocjan,Škocjan",45.8848,14.6314,"P","PPL","SI","",32,"","","",89,NULL,501,"Europe/Ljubljana","2014-05-01"
3189940,"Stari Trg pri Ložu","Stari Trg pri Lozu","Altenmarkt,Stari Trg",45.7148,14.471,"P","PPL","SI","SI","I7","","","",864,NULL,587,"Europe/Ljubljana","2014-04-25"
3189941,"Stari Trg ob Kolpi","Stari Trg ob Kolpi","Stari Trg",45.4936,15.0772,"P","PPL","SI","",17,"","","",97,NULL,370,"Europe/Ljubljana","2014-04-24"
3189942,"Stari Trg","Stari Trg","Stari Trg",46.5,15.0667,"P","PPL","SI","","C2","","","",629,NULL,413,"Europe/Ljubljana","2014-04-24"
3189954,"Stari Log","Stari Log","Stari Log",45.7233,14.9192,"P","PPL","SI","","H7","","","",70,NULL,385,"Europe/Ljubljana","2014-04-24"
3189958,"Stari Kot","Stari Kot","Stari Kot",45.6164,14.6342,"P","PPL","SI","",66,"","","",15,NULL,799,"Europe/Ljubljana","2014-04-24"
3189977,"Stari Breg","Stari Breg","Stari Breg",45.6847,14.9167,"P","PPL","SI","","H7","","","",5,NULL,495,"Europe/Ljubljana","2014-04-24"
3189989,"Stara Vrhnika","Stara Vrhnika","Stara Vrhnika",45.9742,14.2811,"P","PPL","SI","","E5","","","",730,NULL,319,"Europe/Ljubljana","2014-04-24"
3189990,"Stara Vas-Bizeljsko","Stara Vas-Bizeljsko","Stara Vas,Stara Vas-Bizeljsko",45.9667,15.7,"P","PPL","SI","","08","","","",229,NULL,150,"Europe/Ljubljana","2014-04-24"
3189991,"Stara Vas","Stara Vas","Sara Vas,Stara Vas,Stara di Postumia",45.7606,14.2122,"P","PPL","SI","",94,"","","",108,NULL,535,"Europe/Ljubljana","2014-04-24"
3189992,"Stara Sušica","Stara Susica","Stara Susica,Stara Sušica,Sussizza",45.6517,14.1331,"P","PPL","SI","",91,"","","",51,NULL,445,"Europe/Ljubljana","2014-04-25"
3190001,"Stara Oselica","Stara Oselica","Stara Oselica",46.1,14.0833,"P","PPL","SI","",27,"","","",234,NULL,615,"Europe/Ljubljana","2014-04-24"
3190002,"Stara Nova Vas","Stara Nova Vas","Stara Nova Vas,Stara Nova Ves",46.5842,16.1228,"P","PPL","SI","","I1","","","",348,NULL,184,"Europe/Ljubljana","2014-04-24"
3190008,"Stara Loka","Stara Loka","Stara Loka",46.1731,14.3004,"P","PPL","SI","","B9","","","",830,NULL,364,"Europe/Ljubljana","2014-04-26"
3190017,"Stara Gora","Stara Gora","Montevecchio,Stara Gora",45.935,13.6753,"P","PPL","SI","",84,"","","",165,NULL,133,"Europe/Ljubljana","2014-04-24"
3190019,"Stara Fužina","Stara Fuzina","Stara Fuzina,Stara Fužina",46.2878,13.8961,"P","PPL","SI","","04","","","",0,NULL,547,"Europe/Ljubljana","2012-02-02"
3190022,"Stara Cerkev","Stara Cerkev","Stara Cerkev,Stari Cerkev",45.6722,14.8398,"P","PPL","SI","","H7","","","",309,NULL,479,"Europe/Ljubljana","2014-04-26"
3190031,"Stanovsko","Stanovsko","Stanovsko",46.3167,15.5667,"P","PPL","SI","","O8","","","",226,NULL,331,"Europe/Ljubljana","2014-04-24"
3190034,"Stankovo","Stankovo","Stankova,Stankovo",45.8704,15.5631,"P","PPL","SI","","08","","","",11,NULL,211,"Europe/Ljubljana","2014-04-27"
3190038,"Stanjevci","Stanjevci","Kerkaszabadhegy,Stanjevci,Stanjovci,Szabadhegy",46.81,16.1872,"P","PPL","SI","",31,"","","",182,NULL,347,"Europe/Ljubljana","2014-04-24"
3190039,"Štanjel","Stanjel","San Daniel,San Daniele del Carso,Stanjel,Štanjel",45.8233,13.8436,"P","PPL","SI","",49,"","","",349,NULL,314,"Europe/Ljubljana","2014-04-25"
3190050,"Stanežiče","Stanezice","Stanezice,Stanežiče",46.1167,14.4333,"P","PPL","SI","",61,"","","",716,NULL,346,"Europe/Ljubljana","2014-04-25"
3190060,"Štalcerji","Stalcerji","Stalcarji,Stalcerji,Štalcarji,Štalcerji",45.5703,14.8722,"P","PPL","SI","","H7","","","",183,NULL,526,"Europe/Ljubljana","2014-04-25"
3190064,"Štajngrova","Stajngrova","Stajnbrova,Stajngrova,Štajnbrova,Štajngrova",46.6131,15.9041,"P","PPL","SI","",29,"","","",232,NULL,289,"Europe/Ljubljana","2014-04-26"
3190065,"Staje","Staje","Staje",45.9561,14.5158,"P","PPL","SI","",37,"","","",126,NULL,323,"Europe/Ljubljana","2014-04-24"
3190066,"Stahovica","Stahovica","Stahovica",46.2768,14.6172,"P","PPL","SI","","H6","","","",178,NULL,590,"Europe/Ljubljana","2014-04-27"
3190079,"Srpenica","Srpenica","Serpenizza,Srpenica",46.2917,13.4988,"P","PPL","SI","","06","","","",185,364,366,"Europe/Ljubljana","2014-04-27"
3190080,"Sromlje","Sromlje","Sromle,Sromlje",45.9833,15.6,"P","PPL","SI","","08","","","",139,NULL,273,"Europe/Ljubljana","2014-04-24"
3190108,"Srednji Vrh","Srednji Vrh","Srednji Vrh",46.4928,13.8364,"P","PPL","SI","",53,"","","",32,NULL,1020,"Europe/Ljubljana","2014-04-24"
3190115,"Srednji Globodol","Srednji Globodol","Srednji Globodol",45.85,15.05,"P","PPL","SI","","J6","","","",57,NULL,226,"Europe/Ljubljana","2014-04-24"
3190116,"Srednji Gasteraj","Srednji Gasteraj","Srednji Gasteraj",46.6242,15.7949,"P","PPL","SI","","P7","","","",77,NULL,317,"Europe/Ljubljana","2014-04-26"
3190123,"Srednje Pijavško","Srednje Pijavsko","Srednje Pijavsko,Srednje Pijavško",45.9881,15.4359,"P","PPL","SI","",54,"","","",16,NULL,164,"Europe/Ljubljana","2014-04-26"
3190124,"Srednje Laknice","Srednje Laknice","Srednje Laknice",45.9333,15.1833,"P","PPL","SI","","O7","","","",32,NULL,255,"Europe/Ljubljana","2014-04-24"
3190125,"Srednje Jarše","Srednje Jarse","Srednje Jarse,Srednje Jarše",46.1566,14.5957,"P","PPL","SI","","G7","","","",674,NULL,316,"Europe/Ljubljana","2014-04-26"
3190126,"Srednje Grčevje","Srednje Grcevje","Srednje Grcevje,Srednje Grčevje",45.85,15.2,"P","PPL","SI","","J7","","","",90,NULL,257,"Europe/Ljubljana","2014-04-24"
3190127,"Srednje Bitnje","Srednje Bitnje","Srednje Bitnje",46.2167,14.3333,"P","PPL","SI","",52,"","","",579,NULL,381,"Europe/Ljubljana","2014-04-24"
3190131,"Srednja Vas v Bohinju","Srednja Vas v Bohinju","Srednja Vas",46.295,13.9239,"P","PPL","SI","","A3","","","",505,600,585,"Europe/Ljubljana","2015-05-26"
3190132,"Srednja Vas pri Kamniku","Srednja Vas pri Kamniku","Srednja Vas,Srednja Vas pri Kamniku",46.2333,14.6833,"P","PPL","SI","","H6","","","",237,NULL,501,"Europe/Ljubljana","2014-04-24"
3190133,"Srednja Vas pri Dragi","Srednja Vas pri Dragi","Srednja Vas,Srednja Vas pri Dragi",45.6167,14.6631,"P","PPL","SI","",66,"","","",44,NULL,776,"Europe/Ljubljana","2014-04-25"
3190134,"Srednja Vas - Goriče","Srednja Vas - Gorice","Srednja Vas,Srednja Vas - Gorice,Srednja Vas - Goriče",46.3201,14.3544,"P","PPL","SI","","B2","","","",82,NULL,527,"Europe/Ljubljana","2014-04-27"
3190135,"Srednja Vas","Srednja Vas","Srednja Vas",46.3667,14.2333,"P","PPL","SI","","A3","","","",28,NULL,685,"Europe/Ljubljana","2014-04-24"
3190136,"Srednja Vas","Srednja Vas","Srednja Vas",45.6642,15.1086,"P","PPL","SI","","B1","","","",67,NULL,446,"Europe/Ljubljana","2014-04-24"
3190143,"Srednja Kanomlja","Srednja Kanomlja","Srednja Kanomlja",46.0167,13.9833,"P","PPL","SI","",36,"","","",170,NULL,415,"Europe/Ljubljana","2014-04-24"
3190146,"Srednja Dobrava","Srednja Dobrava","Srednja Dobrava",46.3055,14.2213,"P","PPL","SI","","A3","","","",134,NULL,497,"Europe/Ljubljana","2014-04-26"
3190148,"Srednja Bistrica","Srednja Bistrica","Kozepbeszterce,Kozepbesztercze,Középbeszterce,Középbesztercze,Srednja Bistrica",46.5542,16.2789,"P","PPL","SI","",15,"","","",471,NULL,170,"Europe/Ljubljana","2014-04-24"
3190149,"Srednja Bela","Srednja Bela","Srednja Bela",46.2934,14.3976,"P","PPL","SI","","K5","","","",305,NULL,477,"Europe/Ljubljana","2014-04-26"
3190150,"Središče ob Dravi","Sredisce ob Dravi","Sredisce,Sredisce ob Dravi,Središče,Središče ob Dravi",46.3942,16.2681,"P","PPLA","SI","","P4","","","",1124,NULL,182,"Europe/Ljubljana","2014-04-27"
3190151,"Središče","Sredisce","Kisszerdahely,Sredisce,Središče,Szerdahely",46.7682,16.315,"P","PPL","SI","SI",78,"","","",51,NULL,278,"Europe/Ljubljana","2014-04-26"
3190152,"Sredgora","Sredgora","Sredgora",45.6044,15.0925,"P","PPL","SI","","B1","","","",0,NULL,702,"Europe/Ljubljana","2012-01-19"
3190160,"Srebotje","Srebotje","Srebotje,Srobotje",46.6724,15.7094,"P","PPL","SI","",89,"","","",126,NULL,356,"Europe/Ljubljana","2014-04-26"
3190173,"Šratovci","Sratovci","Sratovci,Šratovci",46.6531,16.03,"P","PPL","SI","","A1","","","",182,NULL,199,"Europe/Ljubljana","2014-04-25"
